{"type":"FeatureCollection", "features": [
{"type":"Feature","geometry":{"type":"Point","coordinates":[-90.16732630799999,32.32789016000004]},"properties":{"ID":"0007939216","NAME":"G.V. (SONNY) MONTGOMERY VA MEDICAL CENTER","ADDRESS":"1500 E WOODROW WILSON DR","CITY":"JACKSON","STATE":"MS","ZIP":"39216","ZIP4":"NOT AVAILABLE","TELEPHONE":"(601) 362-4471","TYPE":"MILITARY","STATUS":"OPEN","POPULATION":-999,"COUNTY":"HINDS","COUNTYFIPS":"28049","COUNTRY":"USA","LATITUDE":32.32789016,"LONGITUDE":-90.167326308,"NAICS_CODE":"622110","NAICS_DESC":"GENERAL MEDICAL AND SURGICAL HOSPITALS","SOURCE":"https://www.va.gov/directory/guide/division.asp?dnum=1","SOURCEDATE":"2017-12-14T00:00:00.000Z","VAL_METHOD":"IMAGERY WITH OTHER","VAL_DATE":"2018-05-15T00:00:00.000Z","WEBSITE":"http://www.jackson.va.gov/","STATE_ID":"NOT AVAILABLE","ALT_NAME":"NOT AVAILABLE","ST_FIPS":"28","OWNER":"GOVERNMENT - FEDERAL","TTL_STAFF":-999,"BEDS":-999,"TRAUMA":"NOT AVAILABLE","HELIPAD":"N"}},
{"type":"Feature","geometry":{"type":"Point","coordinates":[-90.17903677999999,32.315262586000074]},"properties":{"ID":"0000839202","NAME":"SELECT SPECIALTY HOSPITAL BELHAVEN","ADDRESS":"1225 NORTH STATE STREET","CITY":"JACKSON","STATE":"MS","ZIP":"39202","ZIP4":"NOT AVAILABLE","TELEPHONE":"(601) 973-1660","TYPE":"LONG TERM CARE","STATUS":"OPEN","POPULATION":25,"COUNTY":"HINDS","COUNTYFIPS":"28049","COUNTRY":"USA","LATITUDE":32.315262586,"LONGITUDE":-90.17903678,"NAICS_CODE":"622310","NAICS_DESC":"EXTENDED CARE HOSPITALS (EXCEPT MENTAL, SUBSTANCE ABUSE)","SOURCE":"http://msdh.ms.gov/msdhsite/_static/resources/6747.pdf","SOURCEDATE":"2017-09-28T00:00:00.000Z","VAL_METHOD":"IMAGERY","VAL_DATE":"2017-10-06T00:00:00.000Z","WEBSITE":"https://belhaven.selectspecialtyhospitals.com/","STATE_ID":"License #23-319","ALT_NAME":"MS HOSPITAL FOR RESTORATIVE CARE","ST_FIPS":"28","OWNER":"NON-PROFIT","TTL_STAFF":-999,"BEDS":25,"TRAUMA":"NOT AVAILABLE","HELIPAD":"NOT AVAILABLE"}},
{"type":"Feature","geometry":{"type":"Point","coordinates":[-90.16406043799998,32.33262603400004]},"properties":{"ID":"0000939216","NAME":"REGENCY HOSPITAL OF JACKSON","ADDRESS":"969 LAKELAND DRIVE,6TH FLOOR","CITY":"JACKSON","STATE":"MS","ZIP":"39216","ZIP4":"NOT AVAILABLE","TELEPHONE":"(601) 364-6200","TYPE":"LONG TERM CARE","STATUS":"CLOSED","POPULATION":36,"COUNTY":"HINDS","COUNTYFIPS":"28049","COUNTRY":"USA","LATITUDE":32.332626034,"LONGITUDE":-90.164060438,"NAICS_CODE":"622310","NAICS_DESC":"EXTENDED CARE HOSPITALS (EXCEPT MENTAL, SUBSTANCE ABUSE)","SOURCE":"http://msdh.ms.gov/msdhsite/_static/resources/6747.pdf","SOURCEDATE":"2017-09-28T00:00:00.000Z","VAL_METHOD":"IMAGERY","VAL_DATE":"2017-10-06T00:00:00.000Z","WEBSITE":"http://www.regencyhospital.com","STATE_ID":"License # 22-344","ALT_NAME":"NOT AVAILABLE","ST_FIPS":"28","OWNER":"PROPRIETARY","TTL_STAFF":-999,"BEDS":36,"TRAUMA":"NOT AVAILABLE","HELIPAD":"Y"}},
{"type":"Feature","geometry":{"type":"Point","coordinates":[-90.16485666599993,32.33256578600003]},"properties":{"ID":"0001039216","NAME":"ST. DOMINIC-JACKSON MEMORIAL HOSPITAL","ADDRESS":"969 LAKELAND DRIVE","CITY":"JACKSON","STATE":"MS","ZIP":"39216","ZIP4":"NOT AVAILABLE","TELEPHONE":"(601) 200-2000","TYPE":"GENERAL ACUTE CARE","STATUS":"OPEN","POPULATION":571,"COUNTY":"HINDS","COUNTYFIPS":"28049","COUNTRY":"USA","LATITUDE":32.332565786,"LONGITUDE":-90.164856666,"NAICS_CODE":"622110","NAICS_DESC":"GENERAL MEDICAL AND SURGICAL HOSPITALS","SOURCE":"http://msdh.ms.gov/msdhsite/_static/resources/6747.pdf","SOURCEDATE":"2017-09-28T00:00:00.000Z","VAL_METHOD":"IMAGERY","VAL_DATE":"2017-10-06T00:00:00.000Z","WEBSITE":"http://www.stdom.com","STATE_ID":"License #14-031","ALT_NAME":"NOT AVAILABLE","ST_FIPS":"28","OWNER":"NON-PROFIT","TTL_STAFF":-999,"BEDS":571,"TRAUMA":"IV","HELIPAD":"Y"}},
{"type":"Feature","geometry":{"type":"Point","coordinates":[-90.25451917999999,32.28776853200003]},"properties":{"ID":"0000639204","NAME":"MERIT HEALTH CENTRAL","ADDRESS":"1850 CHADWICK DRIVE","CITY":"JACKSON","STATE":"MS","ZIP":"39204","ZIP4":"NOT AVAILABLE","TELEPHONE":"(601) 376-1000","TYPE":"GENERAL ACUTE CARE","STATUS":"OPEN","POPULATION":319,"COUNTY":"HINDS","COUNTYFIPS":"28049","COUNTRY":"USA","LATITUDE":32.287768532,"LONGITUDE":-90.25451918,"NAICS_CODE":"622110","NAICS_DESC":"GENERAL MEDICAL AND SURGICAL HOSPITALS","SOURCE":"http://msdh.ms.gov/msdhsite/_static/resources/6747.pdf","SOURCEDATE":"2017-09-28T00:00:00.000Z","VAL_METHOD":"IMAGERY","VAL_DATE":"2017-10-06T00:00:00.000Z","WEBSITE":"http://www.merithealthcentral.com/","STATE_ID":"License #16-240","ALT_NAME":"CENTRAL MS MEDICAL CENTER","ST_FIPS":"28","OWNER":"PROPRIETARY","TTL_STAFF":-999,"BEDS":319,"TRAUMA":"III","HELIPAD":"Y"}},
{"type":"Feature","geometry":{"type":"Point","coordinates":[-90.17944558899995,32.31475639800004]},"properties":{"ID":"0000739202","NAME":"MS BAPTIST MEDICAL CENTER","ADDRESS":"1225 NORTH STATE STREET","CITY":"JACKSON","STATE":"MS","ZIP":"39202","ZIP4":"NOT AVAILABLE","TELEPHONE":"(601) 968-1000","TYPE":"GENERAL ACUTE CARE","STATUS":"OPEN","POPULATION":638,"COUNTY":"HINDS","COUNTYFIPS":"28049","COUNTRY":"USA","LATITUDE":32.314756398,"LONGITUDE":-90.179445589,"NAICS_CODE":"622110","NAICS_DESC":"GENERAL MEDICAL AND SURGICAL HOSPITALS","SOURCE":"http://msdh.ms.gov/msdhsite/_static/resources/6747.pdf","SOURCEDATE":"2017-09-28T00:00:00.000Z","VAL_METHOD":"IMAGERY","VAL_DATE":"2017-10-06T00:00:00.000Z","WEBSITE":"http://www.mbhs.org","STATE_ID":"License #14-281","ALT_NAME":"NOT AVAILABLE","ST_FIPS":"28","OWNER":"NON-PROFIT","TTL_STAFF":-999,"BEDS":638,"TRAUMA":"IV","HELIPAD":"Y"}},
{"type":"Feature","geometry":{"type":"Point","coordinates":[-90.14337561099995,32.389770044000045]},"properties":{"ID":"0001139211","NAME":"SELECT SPECIALTY HOSPITAL - JACKSON","ADDRESS":"5903 RIDGEWOOD ROAD","CITY":"JACKSON","STATE":"MS","ZIP":"39211","ZIP4":"NOT AVAILABLE","TELEPHONE":"(601) 899-3800","TYPE":"LONG TERM CARE","STATUS":"OPEN","POPULATION":53,"COUNTY":"HINDS","COUNTYFIPS":"28049","COUNTRY":"USA","LATITUDE":32.389770044,"LONGITUDE":-90.143375611,"NAICS_CODE":"622310","NAICS_DESC":"EXTENDED CARE HOSPITALS (EXCEPT MENTAL, SUBSTANCE ABUSE)","SOURCE":"http://msdh.ms.gov/msdhsite/_static/resources/6747.pdf","SOURCEDATE":"2017-09-28T00:00:00.000Z","VAL_METHOD":"IMAGERY","VAL_DATE":"2017-10-06T00:00:00.000Z","WEBSITE":"http://www.selectspecialtyhospitals.com/company/locations/jackson.","STATE_ID":"License #22-331","ALT_NAME":"NOT AVAILABLE","ST_FIPS":"28","OWNER":"PROPRIETARY","TTL_STAFF":-999,"BEDS":53,"TRAUMA":"NOT AVAILABLE","HELIPAD":"NOT AVAILABLE"}},
{"type":"Feature","geometry":{"type":"Point","coordinates":[-90.17223839099995,32.328353209000056]},"properties":{"ID":"0003239216","NAME":"MS METHODIST REHABILITATION CENTER","ADDRESS":"1350 EAST WOODROW WILSON DRIVE","CITY":"JACKSON","STATE":"MS","ZIP":"39216","ZIP4":"NOT AVAILABLE","TELEPHONE":"(601) 981-2611","TYPE":"REHABILITATION","STATUS":"OPEN","POPULATION":124,"COUNTY":"HINDS","COUNTYFIPS":"28049","COUNTRY":"USA","LATITUDE":32.328353209,"LONGITUDE":-90.172238391,"NAICS_CODE":"622310","NAICS_DESC":"REHABILITATION HOSPITALS (EXCEPT ALCOHOLISM, DRUG ADDICTION)","SOURCE":"http://msdh.ms.gov/msdhsite/_static/resources/6747.pdf","SOURCEDATE":"2017-09-28T00:00:00.000Z","VAL_METHOD":"IMAGERY","VAL_DATE":"2017-10-06T00:00:00.000Z","WEBSITE":"http://www.methodistrehab.org","STATE_ID":"License #43-278","ALT_NAME":"NOT AVAILABLE","ST_FIPS":"28","OWNER":"NON-PROFIT","TTL_STAFF":-999,"BEDS":124,"TRAUMA":"NOT AVAILABLE","HELIPAD":"NOT AVAILABLE"}},
{"type":"Feature","geometry":{"type":"Point","coordinates":[-90.17314607999998,32.32947228000006]},"properties":{"ID":"0003339216","NAME":"UNIVERSITY HOSPITAL AND CLINICS - THE UNIVERSITY OF MISSISSIPPI MEDICAL CENTER","ADDRESS":"2500 NORTH STATE STREET","CITY":"JACKSON","STATE":"MS","ZIP":"39216","ZIP4":"NOT AVAILABLE","TELEPHONE":"(601) 984-4100","TYPE":"GENERAL ACUTE CARE","STATUS":"OPEN","POPULATION":697,"COUNTY":"HINDS","COUNTYFIPS":"28049","COUNTRY":"USA","LATITUDE":32.32947228,"LONGITUDE":-90.17314608,"NAICS_CODE":"622110","NAICS_DESC":"GENERAL MEDICAL AND SURGICAL HOSPITALS","SOURCE":"http://msdh.ms.gov/msdhsite/_static/resources/6747.pdf","SOURCEDATE":"2017-09-28T00:00:00.000Z","VAL_METHOD":"IMAGERY","VAL_DATE":"2017-10-06T00:00:00.000Z","WEBSITE":"http://www.umc.edu","STATE_ID":"License #11-199","ALT_NAME":"NOT AVAILABLE","ST_FIPS":"28","OWNER":"GOVERNMENT - STATE","TTL_STAFF":-999,"BEDS":697,"TRAUMA":"I","HELIPAD":"Y"}}
]}