{"type":"FeatureCollection","features":[{"type":"Feature","id":1,"geometry":{"type":"Point","coordinates":[-90.247423499776218,32.355826500186922]},"properties":{"OBJECTID":1,"ID":"11549076","NAME":"JACKSON POLICE DEPARTMENT - PRECINCT THREE","TELEPHONE":"601-960-0003","ADDRESS":"3925 WEST NORTHSIDE DRIVE","ADDRESS2":"NOT AVAILABLE","CITY":"JACKSON","STATE":"MS","ZIP":"39209","ZIPP4":"2562","COUNTY":"HINDS","FIPS":"28049","DIRECTIONS":"NOT AVAILABLE","EMERGTITLE":"NOT AVAILABLE","EMERGTEL":"NOT AVAILABLE","EMERGEXT":"N/A","CONTDATE":1248739200000,"CONTHOW":"PHONE","GEODATE":1248739200000,"GEOHOW":"MANUAL","HSIPTHEMES":"CRITICAL INFRASTRUCTURE, PDD-63; EMERGENCY LAW ENFORCEMENT; LAW ENFORCEMENT; LOCAL LAW ENFORCEMENT OFFICES (COUNTY, CITY, ETC.)","NAICSCODE":"922120","NAICSDESCR":"POLICE DEPARTMENTS (EXCEPT AMERICAN INDIAN OR ALASKA NATIVE)","GEOLINKID":"99333002","X":-90.247423499999996,"Y":32.355826499999999,"ST_VENDOR":"NAVTEQ","ST_VERSION":"2008Q1","GEOPREC":"ONENTITY","PHONELOC":"YES","QC_QA":"TGS","STATE_ID":"NOT AVAILABLE","ORI":"NOT AVAILABLE","LEMAS_ID":"NOT AVAILABLE","SECLEVEL":"NOT AVAILABLE","FACTYPE":"NOT AVAILABLE","AGENCY":"NOT AVAILABLE","INMATE_MEN":"N/A","INMATE_WOM":"N/A","INMATE_JUV":"N/A","INMATE_COE":"N/A","CAPACITY":0,"TOTALPOP":0,"EMERPHONE":"NOT AVAILABLE","PERM_ID":"NOT AVAILABLE","GNIS_ID":"NOT AVAILABLE","CI":"Y","TYPE":"Local"}},{"type":"Feature","id":2,"geometry":{"type":"Point","coordinates":[-90.196275899662112,32.304166200351062]},"properties":{"OBJECTID":2,"ID":"10026408","NAME":"ARSON INTERNAL AFFAIRS OF JACKSON FIRE DEPARTMENT","TELEPHONE":"601-960-1220","ADDRESS":"836 WEST AMITE STREET","ADDRESS2":"NOT AVAILABLE","CITY":"JACKSON","STATE":"MS","ZIP":"39203","ZIPP4":"2621","COUNTY":"HINDS","FIPS":"28049","DIRECTIONS":".04 MILES NORTHWEST OF NORTH LEMON STREET ON THE NORTHEAST SIDE OF WEST AMITE STREET","EMERGTITLE":"NOT AVAILABLE","EMERGTEL":"NOT AVAILABLE","EMERGEXT":"N/A","CONTDATE":1165881600000,"CONTHOW":"PHONE","GEODATE":1165881600000,"GEOHOW":"MANUAL","HSIPTHEMES":"CRITICAL INFRASTRUCTURE, PDD-63; EMERGENCY LAW ENFORCEMENT; LAW ENFORCEMENT; LOCAL LAW ENFORCEMENT OFFICES (COUNTY, CITY, ETC.)","NAICSCODE":"922120","NAICSDESCR":"POLICE AND FIRE DEPARTMENTS, COMBINED","GEOLINKID":"99343349","X":-90.196275900000003,"Y":32.304166199999997,"ST_VENDOR":"NAVTEQ","ST_VERSION":"2008Q1","GEOPREC":"BLOCKFACE","PHONELOC":"YES","QC_QA":"TGS","STATE_ID":"NOT AVAILABLE","ORI":"NOT AVAILABLE","LEMAS_ID":"2510250250222000","SECLEVEL":"NOT AVAILABLE","FACTYPE":"NOT AVAILABLE","AGENCY":"NOT AVAILABLE","INMATE_MEN":"N/A","INMATE_WOM":"N/A","INMATE_JUV":"N/A","INMATE_COE":"N/A","CAPACITY":0,"TOTALPOP":0,"EMERPHONE":"NOT AVAILABLE","PERM_ID":"NOT AVAILABLE","GNIS_ID":"NOT AVAILABLE","CI":" ","TYPE":"Local"}},{"type":"Feature","id":3,"geometry":{"type":"Point","coordinates":[-90.177450899789534,32.305085899979602]},"properties":{"OBJECTID":3,"ID":"10026405","NAME":"MISSISSIPPI GAMING COMMISSION DEPARTMENT OF LAW ENFORCEMENT","TELEPHONE":"800-504-7529","ADDRESS":"620 NORTH STREET","ADDRESS2":"SUITE 200","CITY":"JACKSON","STATE":"MS","ZIP":"39202","ZIPP4":"3140","COUNTY":"HINDS","FIPS":"28049","DIRECTIONS":".05 MILES NORTHEAST OF HIGH STREET ON THE SOUTHEAST SIDE OF NORTH STREET","EMERGTITLE":"NOT AVAILABLE","EMERGTEL":"NOT AVAILABLE","EMERGEXT":"N/A","CONTDATE":1165795200000,"CONTHOW":"PHONE","GEODATE":1165795200000,"GEOHOW":"MANUAL","HSIPTHEMES":"CRITICAL INFRASTRUCTURE, PDD-63; EMERGENCY LAW ENFORCEMENT; LAW ENFORCEMENT; STATE POLICE OFFICES","NAICSCODE":"922120","NAICSDESCR":"STATE POLICE","GEOLINKID":"99343328","X":-90.177450899999997,"Y":32.305085900000002,"ST_VENDOR":"NAVTEQ","ST_VERSION":"2006Q3","GEOPREC":"ONENTITY","PHONELOC":"YES","QC_QA":"TGS","STATE_ID":"NOT AVAILABLE","ORI":"NOT AVAILABLE","LEMAS_ID":"2500000000204000","SECLEVEL":"NOT AVAILABLE","FACTYPE":"NOT AVAILABLE","AGENCY":"NOT AVAILABLE","INMATE_MEN":"N/A","INMATE_WOM":"N/A","INMATE_JUV":"N/A","INMATE_COE":"N/A","CAPACITY":0,"TOTALPOP":0,"EMERPHONE":"NOT AVAILABLE","PERM_ID":"NOT AVAILABLE","GNIS_ID":"NOT AVAILABLE","CI":" ","TYPE":"Local"}},{"type":"Feature","id":4,"geometry":{"type":"Point","coordinates":[-90.182558399796477,32.305506900001845]},"properties":{"OBJECTID":4,"ID":"10026407","NAME":"MISSISSIPPI STATE CAPITOL POLICE","TELEPHONE":"601-359-3125","ADDRESS":"501 NORTH WEST STREET","ADDRESS2":"NOT AVAILABLE","CITY":"JACKSON","STATE":"MS","ZIP":"39201","ZIPP4":"1001","COUNTY":"HINDS","FIPS":"28049","DIRECTIONS":"ON THE NORTHEAST CORNER OF NORTH WEST STREET AND HIGH STREET","EMERGTITLE":"NOT AVAILABLE","EMERGTEL":"NOT AVAILABLE","EMERGEXT":"N/A","CONTDATE":1165795200000,"CONTHOW":"PHONE","GEODATE":1165881600000,"GEOHOW":"MANUAL","HSIPTHEMES":"CRITICAL INFRASTRUCTURE, PDD-63; EMERGENCY LAW ENFORCEMENT; LAW ENFORCEMENT; LOCAL LAW ENFORCEMENT OFFICES (COUNTY, CITY, ETC.)","NAICSCODE":"922120","NAICSDESCR":"POLICE DEPARTMENTS (EXCEPT AMERICAN INDIAN OR ALASKA NATIVE)","GEOLINKID":"99343221","X":-90.182558400000005,"Y":32.305506899999997,"ST_VENDOR":"NAVTEQ","ST_VERSION":"2006Q3","GEOPREC":"ONENTITY","PHONELOC":"YES","QC_QA":"TGS","STATE_ID":"NOT AVAILABLE","ORI":"NOT AVAILABLE","LEMAS_ID":"2500000000201100","SECLEVEL":"NOT AVAILABLE","FACTYPE":"NOT AVAILABLE","AGENCY":"NOT AVAILABLE","INMATE_MEN":"N/A","INMATE_WOM":"N/A","INMATE_JUV":"N/A","INMATE_COE":"N/A","CAPACITY":0,"TOTALPOP":0,"EMERPHONE":"NOT AVAILABLE","PERM_ID":"NOT AVAILABLE","GNIS_ID":"NOT AVAILABLE","CI":" ","TYPE":"Local"}},{"type":"Feature","id":5,"geometry":{"type":"Point","coordinates":[-90.175233100388539,32.329028300593023]},"properties":{"OBJECTID":5,"ID":"10026400","NAME":"UNIVERSITY OF MISSISSIPPI-MEDICAL CENTER CAMPUS POLICE","TELEPHONE":"601-984-1360","ADDRESS":"2500 NORTH STATE STREET","ADDRESS2":"NOT AVAILABLE","CITY":"JACKSON","STATE":"MS","ZIP":"39216","ZIPP4":"4500","COUNTY":"HINDS","FIPS":"28049","DIRECTIONS":".15 MILES NORTH OF EAST WOODROW WILSON DRIVE ON THE EAST SIDE OF NORTH STATE STREET","EMERGTITLE":"NOT AVAILABLE","EMERGTEL":"NOT AVAILABLE","EMERGEXT":"N/A","CONTDATE":1165795200000,"CONTHOW":"PHONE","GEODATE":1165795200000,"GEOHOW":"MANUAL","HSIPTHEMES":"CRITICAL INFRASTRUCTURE, PDD-63; EMERGENCY LAW ENFORCEMENT; LAW ENFORCEMENT; LOCAL LAW ENFORCEMENT OFFICES (COUNTY, CITY, ETC.)","NAICSCODE":"922120","NAICSDESCR":"POLICE DEPARTMENTS (EXCEPT AMERICAN INDIAN OR ALASKA NATIVE)","GEOLINKID":"99340020","X":-90.1752331,"Y":32.329028299999997,"ST_VENDOR":"NAVTEQ","ST_VERSION":"2008Q1","GEOPREC":"BLOCKFACE","PHONELOC":"YES","QC_QA":"TGS","STATE_ID":"NOT AVAILABLE","ORI":"NOT AVAILABLE","LEMAS_ID":"2500000000200900","SECLEVEL":"NOT AVAILABLE","FACTYPE":"NOT AVAILABLE","AGENCY":"NOT AVAILABLE","INMATE_MEN":"N/A","INMATE_WOM":"N/A","INMATE_JUV":"N/A","INMATE_COE":"N/A","CAPACITY":0,"TOTALPOP":0,"EMERPHONE":"NOT AVAILABLE","PERM_ID":"NOT AVAILABLE","GNIS_ID":"NOT AVAILABLE","CI":" ","TYPE":"Local"}},{"type":"Feature","id":6,"geometry":{"type":"Point","coordinates":[-90.224170399339329,32.346110799535261]},"properties":{"OBJECTID":6,"ID":"11531577","NAME":"HINDS COMMUNITY COLLEGE - JACKSON ACADEMIC TECHNICAL CENTER POLICE DEPARTMENT","TELEPHONE":"601-987-8112","ADDRESS":"3925 SUNSET DRIVE","ADDRESS2":"WALTER BIVINS HALL","CITY":"JACKSON","STATE":"MS","ZIP":"39213","ZIPP4":"5855","COUNTY":"HINDS","FIPS":"28049","DIRECTIONS":"NOT AVAILABLE","EMERGTITLE":"NOT AVAILABLE","EMERGTEL":"NOT AVAILABLE","EMERGEXT":"N/A","CONTDATE":1245369600000,"CONTHOW":"PHONE","GEODATE":1245369600000,"GEOHOW":"MANUAL","HSIPTHEMES":"CRITICAL INFRASTRUCTURE, PDD-63; EMERGENCY LAW ENFORCEMENT; LAW ENFORCEMENT; LOCAL LAW ENFORCEMENT OFFICES (COUNTY, CITY, ETC.)","NAICSCODE":"922120","NAICSDESCR":"POLICE DEPARTMENTS (EXCEPT AMERICAN INDIAN OR ALASKA NATIVE)","GEOLINKID":"114376846","X":-90.224170400000006,"Y":32.346110799999998,"ST_VENDOR":"NAVTEQ","ST_VERSION":"2008Q1","GEOPREC":"ONENTITY","PHONELOC":"YES","QC_QA":"TGS","STATE_ID":"NOT AVAILABLE","ORI":"NOT AVAILABLE","LEMAS_ID":"NOT AVAILABLE","SECLEVEL":"NOT AVAILABLE","FACTYPE":"COMMUNITY COLLEGE","AGENCY":"NOT AVAILABLE","INMATE_MEN":"N/A","INMATE_WOM":"N/A","INMATE_JUV":"N/A","INMATE_COE":"N/A","CAPACITY":0,"TOTALPOP":0,"EMERPHONE":"NOT AVAILABLE","PERM_ID":"NOT AVAILABLE","GNIS_ID":"NOT AVAILABLE","CI":"N","TYPE":"Local"}},{"type":"Feature","id":7,"geometry":{"type":"Point","coordinates":[-90.193161499860892,32.296661000340158]},"properties":{"OBJECTID":7,"ID":"10842254","NAME":"MISSISSIPPI DEPARTMENT OF CORRECTIONS - HINDS COUNTY RESTITUTION CENTER","TELEPHONE":"601-354-0062","ADDRESS":"429 SOUTH GALLATIN STREET","ADDRESS2":"NOT AVAILABLE","CITY":"JACKSON","STATE":"MS","ZIP":"39203","ZIPP4":"3615","COUNTY":"HINDS","FIPS":"28049","DIRECTIONS":"NOT AVAILABLE","EMERGTITLE":"NOT AVAILABLE","EMERGTEL":"NOT AVAILABLE","EMERGEXT":"N/A","CONTDATE":1244592000000,"CONTHOW":"PHONE","GEODATE":1244419200000,"GEOHOW":"MANUAL","HSIPTHEMES":"CRITICAL INFRASTRUCTURE, PDD-63; EMERGENCY LAW ENFORCEMENT; PRISONS; JAILS - STATE","NAICSCODE":"922140","NAICSDESCR":"CORRECTIONAL INSTITUTIONS","GEOLINKID":"99344548","X":-90.193161500000002,"Y":32.296661,"ST_VENDOR":"NAVTEQ","ST_VERSION":"2008Q1","GEOPREC":"ONENTITY","PHONELOC":"YES","QC_QA":"TGS","STATE_ID":"NOT AVAILABLE","ORI":"NOT AVAILABLE","LEMAS_ID":"NOT AVAILABLE","SECLEVEL":"NOT AVAILABLE","FACTYPE":"NOT AVAILABLE","AGENCY":"NOT AVAILABLE","INMATE_MEN":"N/A","INMATE_WOM":"N/A","INMATE_JUV":"N/A","INMATE_COE":"N/A","CAPACITY":0,"TOTALPOP":0,"EMERPHONE":"NOT AVAILABLE","PERM_ID":"NOT AVAILABLE","GNIS_ID":"NOT AVAILABLE","CI":"Y","TYPE":"Local"}},{"type":"Feature","id":8,"geometry":{"type":"Point","coordinates":[-90.162327099923004,32.327944700534609]},"properties":{"OBJECTID":8,"ID":"11532011","NAME":"MISSISSIPPI DEPARTMENT OF PUBLIC SAFETY - HIGHWAY PATROL DISTRICT 1","TELEPHONE":"601-987-1212","ADDRESS":"1900 EAST WOODROW WILSON AVENUE","ADDRESS2":"NOT AVAILABLE","CITY":"JACKSON","STATE":"MS","ZIP":"39216","ZIPP4":"5118","COUNTY":"HINDS","FIPS":"28049","DIRECTIONS":"NOT AVAILABLE","EMERGTITLE":"NOT AVAILABLE","EMERGTEL":"NOT AVAILABLE","EMERGEXT":"N/A","CONTDATE":1245024000000,"CONTHOW":"PHONE","GEODATE":1245024000000,"GEOHOW":"MANUAL","HSIPTHEMES":"CRITICAL INFRASTRUCTURE, PDD-63; EMERGENCY LAW ENFORCEMENT; LAW ENFORCEMENT; STATE POLICE OFFICES","NAICSCODE":"922120","NAICSDESCR":"HIGHWAY PATROLS, POLICE","GEOLINKID":"110311231","X":-90.162327099999999,"Y":32.327944700000003,"ST_VENDOR":"NAVTEQ","ST_VERSION":"2008Q1","GEOPREC":"ONENTITY","PHONELOC":"YES","QC_QA":"TGS","STATE_ID":"NOT AVAILABLE","ORI":"NOT AVAILABLE","LEMAS_ID":"NOT AVAILABLE","SECLEVEL":"NOT AVAILABLE","FACTYPE":"MHP","AGENCY":"NOT AVAILABLE","INMATE_MEN":"N/A","INMATE_WOM":"N/A","INMATE_JUV":"N/A","INMATE_COE":"N/A","CAPACITY":0,"TOTALPOP":0,"EMERPHONE":"NOT AVAILABLE","PERM_ID":"NOT AVAILABLE","GNIS_ID":"NOT AVAILABLE","CI":"N","TYPE":"Local"}},{"type":"Feature","id":9,"geometry":{"type":"Point","coordinates":[-90.182863500006306,32.296524000186693]},"properties":{"OBJECTID":9,"ID":"11531572","NAME":"HINDS COUNTY SHERIFFS DEPARTMENT / HINDS COUNTY SHERIFFS DEPARTMENT - JACKSON DETENTION CENTER","TELEPHONE":"601-974-2900","ADDRESS":"407 EAST PASCAGOULA STREET","ADDRESS2":"NOT AVAILABLE","CITY":"JACKSON","STATE":"MS","ZIP":"39201","ZIPP4":"4206","COUNTY":"HINDS","FIPS":"28049","DIRECTIONS":"NOT AVAILABLE","EMERGTITLE":"NOT AVAILABLE","EMERGTEL":"NOT AVAILABLE","EMERGEXT":"N/A","CONTDATE":1245628800000,"CONTHOW":"PHONE","GEODATE":1245628800000,"GEOHOW":"MANUAL","HSIPTHEMES":"CRITICAL INFRASTRUCTURE, PDD-63; EMERGENCY LAW ENFORCEMENT; LAW ENFORCEMENT; LOCAL LAW ENFORCEMENT OFFICES (COUNTY, CITY, ETC.)","NAICSCODE":"922120","NAICSDESCR":"SHERIFFS' OFFICES (EXCEPT COURT FUNCTIONS ONLY)","GEOLINKID":"99344405","X":-90.182863499999996,"Y":32.296523999999998,"ST_VENDOR":"NAVTEQ","ST_VERSION":"2008Q1","GEOPREC":"ONENTITY","PHONELOC":"YES","QC_QA":"TGS","STATE_ID":"NOT AVAILABLE","ORI":"NOT AVAILABLE","LEMAS_ID":"NOT AVAILABLE","SECLEVEL":"NOT AVAILABLE","FACTYPE":"SHERIFF","AGENCY":"NOT AVAILABLE","INMATE_MEN":"N/A","INMATE_WOM":"N/A","INMATE_JUV":"N/A","INMATE_COE":"N/A","CAPACITY":0,"TOTALPOP":0,"EMERPHONE":"NOT AVAILABLE","PERM_ID":"NOT AVAILABLE","GNIS_ID":"NOT AVAILABLE","CI":"Y","TYPE":"Local"}},{"type":"Feature","id":10,"geometry":{"type":"Point","coordinates":[-90.205977000451426,32.29886429991091]},"properties":{"OBJECTID":10,"ID":"11532002","NAME":"JACKSON STATE UNIVERSITY DEPARTMENT OF PUBLIC SAFETY","TELEPHONE":"601-979-2580","ADDRESS":"938 DALTON STREET","ADDRESS2":"NOT AVAILABLE","CITY":"JACKSON","STATE":"MS","ZIP":"39217","ZIPP4":"3211","COUNTY":"HINDS","FIPS":"28049","DIRECTIONS":"NOT AVAILABLE","EMERGTITLE":"NOT AVAILABLE","EMERGTEL":"NOT AVAILABLE","EMERGEXT":"N/A","CONTDATE":1245024000000,"CONTHOW":"PHONE","GEODATE":1245024000000,"GEOHOW":"MANUAL","HSIPTHEMES":"CRITICAL INFRASTRUCTURE, PDD-63; EMERGENCY LAW ENFORCEMENT; LAW ENFORCEMENT; LOCAL LAW ENFORCEMENT OFFICES (COUNTY, CITY, ETC.)","NAICSCODE":"922120","NAICSDESCR":"POLICE DEPARTMENTS (EXCEPT AMERICAN INDIAN OR ALASKA NATIVE)","GEOLINKID":"99344147","X":-90.205977000000004,"Y":32.298864299999998,"ST_VENDOR":"NAVTEQ","ST_VERSION":"2008Q1","GEOPREC":"BLOCKFACE","PHONELOC":"YES","QC_QA":"TGS","STATE_ID":"2263","ORI":"NOT AVAILABLE","LEMAS_ID":"NOT AVAILABLE","SECLEVEL":"NOT AVAILABLE","FACTYPE":"UNIVERSITY","AGENCY":"NOT AVAILABLE","INMATE_MEN":"N/A","INMATE_WOM":"N/A","INMATE_JUV":"N/A","INMATE_COE":"N/A","CAPACITY":0,"TOTALPOP":0,"EMERPHONE":"NOT AVAILABLE","PERM_ID":"NOT AVAILABLE","GNIS_ID":"NOT AVAILABLE","CI":"N","TYPE":"Local"}},{"type":"Feature","id":11,"geometry":{"type":"Point","coordinates":[-90.196805000177932,32.302349300526771]},"properties":{"OBJECTID":11,"ID":"11549007","NAME":"JACKSON POLICE DEPARTMENT - PRECINCT TWO","TELEPHONE":"601-960-0002","ADDRESS":"711 WEST CAPITOL STREET","ADDRESS2":"NOT AVAILABLE","CITY":"JACKSON","STATE":"MS","ZIP":"39203","ZIPP4":"2608","COUNTY":"HINDS","FIPS":"28049","DIRECTIONS":"NOT AVAILABLE","EMERGTITLE":"NOT AVAILABLE","EMERGTEL":"NOT AVAILABLE","EMERGEXT":"N/A","CONTDATE":1248739200000,"CONTHOW":"PHONE","GEODATE":1248739200000,"GEOHOW":"MANUAL","HSIPTHEMES":"CRITICAL INFRASTRUCTURE, PDD-63; EMERGENCY LAW ENFORCEMENT; LAW ENFORCEMENT; LOCAL LAW ENFORCEMENT OFFICES (COUNTY, CITY, ETC.)","NAICSCODE":"922120","NAICSDESCR":"POLICE DEPARTMENTS (EXCEPT AMERICAN INDIAN OR ALASKA NATIVE)","GEOLINKID":"99343504","X":-90.196804999999998,"Y":32.302349300000003,"ST_VENDOR":"NAVTEQ","ST_VERSION":"2008Q1","GEOPREC":"ONENTITY","PHONELOC":"YES","QC_QA":"TGS","STATE_ID":"NOT AVAILABLE","ORI":"NOT AVAILABLE","LEMAS_ID":"NOT AVAILABLE","SECLEVEL":"NOT AVAILABLE","FACTYPE":"NOT AVAILABLE","AGENCY":"NOT AVAILABLE","INMATE_MEN":"N/A","INMATE_WOM":"N/A","INMATE_JUV":"N/A","INMATE_COE":"N/A","CAPACITY":0,"TOTALPOP":0,"EMERPHONE":"NOT AVAILABLE","PERM_ID":"NOT AVAILABLE","GNIS_ID":"NOT AVAILABLE","CI":"Y","TYPE":"Local"}},{"type":"Feature","id":12,"geometry":{"type":"Point","coordinates":[-90.250488600034672,32.253690499820827]},"properties":{"OBJECTID":12,"ID":"11549005","NAME":"JACKSON POLICE DEPARTMENT - PRECINCT ONE","TELEPHONE":"601-960-0001","ADDRESS":"810 COOPER ROAD","ADDRESS2":"NOT AVAILABLE","CITY":"JACKSON","STATE":"MS","ZIP":"39212","ZIPP4":"4061","COUNTY":"HINDS","FIPS":"28049","DIRECTIONS":"NOT AVAILABLE","EMERGTITLE":"NOT AVAILABLE","EMERGTEL":"NOT AVAILABLE","EMERGEXT":"N/A","CONTDATE":1248393600000,"CONTHOW":"PHONE","GEODATE":1248393600000,"GEOHOW":"MANUAL","HSIPTHEMES":"CRITICAL INFRASTRUCTURE, PDD-63; EMERGENCY LAW ENFORCEMENT; LAW ENFORCEMENT; LOCAL LAW ENFORCEMENT OFFICES (COUNTY, CITY, ETC.)","NAICSCODE":"922120","NAICSDESCR":"POLICE DEPARTMENTS (EXCEPT AMERICAN INDIAN OR ALASKA NATIVE)","GEOLINKID":"99348800","X":-90.250488599999997,"Y":32.253690499999998,"ST_VENDOR":"NAVTEQ","ST_VERSION":"2008Q1","GEOPREC":"ONENTITY","PHONELOC":"YES","QC_QA":"TGS","STATE_ID":"NOT AVAILABLE","ORI":"NOT AVAILABLE","LEMAS_ID":"NOT AVAILABLE","SECLEVEL":"NOT AVAILABLE","FACTYPE":"NOT AVAILABLE","AGENCY":"NOT AVAILABLE","INMATE_MEN":"N/A","INMATE_WOM":"N/A","INMATE_JUV":"N/A","INMATE_COE":"N/A","CAPACITY":0,"TOTALPOP":0,"EMERPHONE":"NOT AVAILABLE","PERM_ID":"NOT AVAILABLE","GNIS_ID":"NOT AVAILABLE","CI":"Y","TYPE":"Local"}},{"type":"Feature","id":13,"geometry":{"type":"Point","coordinates":[-90.145585899557105,32.365219099319063]},"properties":{"OBJECTID":13,"ID":"10024868","NAME":"JACKSON POLICE DEPARTMENT - PRECINCT FOUR","TELEPHONE":"601-960-1453","ADDRESS":"4940 OLD CANTON ROAD","ADDRESS2":"NOT AVAILABLE","CITY":"JACKSON","STATE":"MS","ZIP":"39211","ZIPP4":"5404","COUNTY":"HINDS","FIPS":"28049","DIRECTIONS":"NOT AVAILABLE","EMERGTITLE":"NOT AVAILABLE","EMERGTEL":"NOT AVAILABLE","EMERGEXT":"N/A","CONTDATE":1248739200000,"CONTHOW":"PHONE","GEODATE":1248739200000,"GEOHOW":"MANUAL","HSIPTHEMES":"CRITICAL INFRASTRUCTURE, PDD-63; EMERGENCY LAW ENFORCEMENT; LAW ENFORCEMENT; LOCAL LAW ENFORCEMENT OFFICES (COUNTY, CITY, ETC.)","NAICSCODE":"922120","NAICSDESCR":"POLICE DEPARTMENTS (EXCEPT AMERICAN INDIAN OR ALASKA NATIVE)","GEOLINKID":"117784659","X":-90.1455859,"Y":32.365219099999997,"ST_VENDOR":"NAVTEQ","ST_VERSION":"2008Q1","GEOPREC":"ONENTITY","PHONELOC":"YES","QC_QA":"TGS","STATE_ID":"NOT AVAILABLE","ORI":"NOT AVAILABLE","LEMAS_ID":"NOT AVAILABLE","SECLEVEL":"NOT AVAILABLE","FACTYPE":"NOT AVAILABLE","AGENCY":"NOT AVAILABLE","INMATE_MEN":"N/A","INMATE_WOM":"N/A","INMATE_JUV":"N/A","INMATE_COE":"N/A","CAPACITY":0,"TOTALPOP":0,"EMERPHONE":"NOT AVAILABLE","PERM_ID":"NOT AVAILABLE","GNIS_ID":"NOT AVAILABLE","CI":"Y","TYPE":"Local"}},{"type":"Feature","id":14,"geometry":{"type":"Point","coordinates":[-90.183873800172066,32.297070299404638]},"properties":{"OBJECTID":14,"ID":"11531752","NAME":"JACKSON POLICE DEPARTMENT","TELEPHONE":"601-960-1217","ADDRESS":"327 EAST PASCAGOULA STREET","ADDRESS2":"NOT AVAILABLE","CITY":"JACKSON","STATE":"MS","ZIP":"39201","ZIPP4":"4204","COUNTY":"HINDS","FIPS":"28049","DIRECTIONS":"NOT AVAILABLE","EMERGTITLE":"NOT AVAILABLE","EMERGTEL":"NOT AVAILABLE","EMERGEXT":"N/A","CONTDATE":1248739200000,"CONTHOW":"PHONE","GEODATE":1248739200000,"GEOHOW":"MANUAL","HSIPTHEMES":"CRITICAL INFRASTRUCTURE, PDD-63; EMERGENCY LAW ENFORCEMENT; LAW ENFORCEMENT; LOCAL LAW ENFORCEMENT OFFICES (COUNTY, CITY, ETC.)","NAICSCODE":"922120","NAICSDESCR":"POLICE DEPARTMENTS (EXCEPT AMERICAN INDIAN OR ALASKA NATIVE)","GEOLINKID":"99344375","X":-90.183873800000001,"Y":32.297070300000001,"ST_VENDOR":"NAVTEQ","ST_VERSION":"2008Q1","GEOPREC":"ONENTITY","PHONELOC":"YES","QC_QA":"TGS","STATE_ID":"NOT AVAILABLE","ORI":"NOT AVAILABLE","LEMAS_ID":"NOT AVAILABLE","SECLEVEL":"NOT AVAILABLE","FACTYPE":"POLICE","AGENCY":"NOT AVAILABLE","INMATE_MEN":"N/A","INMATE_WOM":"N/A","INMATE_JUV":"N/A","INMATE_COE":"N/A","CAPACITY":0,"TOTALPOP":0,"EMERPHONE":"NOT AVAILABLE","PERM_ID":"NOT AVAILABLE","GNIS_ID":"NOT AVAILABLE","CI":"Y","TYPE":"Local"}}]}