{"type":"FeatureCollection","features":[{"type":"Feature","id":1,"geometry":{"type":"Point","coordinates":[-90.257025253183329,32.259277357506441]},"properties":{"OBJECTID":1,"ID":"10573876","NAME":"JACKSON FIRE DEPARTMENT DISTRICT 3 STATION 19","TELEPHONE":"601-960-2119","ADDRESS":"5810 RIDGELAND DRIVE","ADDRESS2":" ","CITY":"JACKSON","STATE":"MS","ZIP":"39212","ZIPP4":" ","COUNTY":"HINDS","FIPS":"28049","DIRECTIONS":"LOCATED ON THE NW CORNER OF THE INTERSECTION OF WOODVILLE DR AND RIDGELAND DR.","EMERGTITLE":" ","EMERGTEL":" ","EMERGEXT":" ","CONTDATE":1218412800000,"CONTHOW":"PHONE","GEODATE":1218412800000,"GEOHOW":"MANUAL","HSIPTHEMES":"CRITICAL INFRASTRUCTURE, PDD-63; EMERGENCY SERVICES AND CONTINUITY OF GOVERNMENT; FIRE STATIONS/EMS STATIONS","NAICSCODE":"922160","NAICSDESCR":"AMBULANCE AND FIRE SERVICE COMBINED","GEOLINKID":"99348256","X":-90.257025299999995,"Y":32.259277400000002,"ST_VENDOR":"NAVTEQ","ST_VERSION":"2007Q2","GEOPREC":"BLOCKFACE","PHONELOC":"YES","QC_QA":"TGS","STATE_ID":" ","FDID":" ","FRST_MBRS":0,"EMS_MBRS":0,"TOTALPERS":0,"NUMTRKS":0,"NUMABUL":0,"TOTAL_VEHI":0,"NBR_STA":0,"OWNER":" ","LEVEL_":" ","TYPE":" ","SPECIALTY":" ","EMSLICENSE":" ","EMERPHONE":" ","EMS":"Y","PERM_ID":" ","GNIS_ID":" "}},{"type":"Feature","id":2,"geometry":{"type":"Point","coordinates":[-90.176628339433321,32.322987702019795]},"properties":{"OBJECTID":2,"ID":"10573783","NAME":"JACKSON FIRE DEPARTMENT DISTRICT 1 STATION 5","TELEPHONE":"601-960-2105","ADDRESS":"1810 NORTH STATE STREET","ADDRESS2":" ","CITY":"JACKSON","STATE":"MS","ZIP":"39202","ZIPP4":"1146","COUNTY":"HINDS","FIPS":"28049","DIRECTIONS":"LOCATED ON THE E SIDE OF N STATE ST IN BETWEEN RIVERSIDE DR AND EUCLID AVE.","EMERGTITLE":" ","EMERGTEL":" ","EMERGEXT":" ","CONTDATE":1218412800000,"CONTHOW":"PHONE","GEODATE":1218412800000,"GEOHOW":"MANUAL","HSIPTHEMES":"CRITICAL INFRASTRUCTURE, PDD-63; EMERGENCY SERVICES AND CONTINUITY OF GOVERNMENT; FIRE STATIONS/EMS STATIONS","NAICSCODE":"922160","NAICSDESCR":"AMBULANCE AND FIRE SERVICE COMBINED","GEOLINKID":"99169313","X":-90.176628300000004,"Y":32.322987699999999,"ST_VENDOR":"NAVTEQ","ST_VERSION":"2007Q2","GEOPREC":"ONENTITY","PHONELOC":"YES","QC_QA":"TGS","STATE_ID":" ","FDID":" ","FRST_MBRS":0,"EMS_MBRS":0,"TOTALPERS":0,"NUMTRKS":0,"NUMABUL":0,"TOTAL_VEHI":0,"NBR_STA":0,"OWNER":" ","LEVEL_":" ","TYPE":" ","SPECIALTY":" ","EMSLICENSE":" ","EMERPHONE":" ","EMS":"Y","PERM_ID":" ","GNIS_ID":" "}},{"type":"Feature","id":3,"geometry":{"type":"Point","coordinates":[-90.198031064895147,32.297011611052596]},"properties":{"OBJECTID":3,"ID":"10573800","NAME":"JACKSON FIRE DEPARTMENT DISTRICT 1 STATION 28","TELEPHONE":"601-960-2128","ADDRESS":"611 TERRY ROAD","ADDRESS2":" ","CITY":"JACKSON","STATE":"MS","ZIP":"39203","ZIPP4":"3456","COUNTY":"HINDS","FIPS":"28049","DIRECTIONS":"LOCATED ON THE SW CORNER OF THE INTERSECTION OF JOHN R LYNCH ST AND TERRY RD.","EMERGTITLE":" ","EMERGTEL":" ","EMERGEXT":" ","CONTDATE":1218412800000,"CONTHOW":"PHONE","GEODATE":1218412800000,"GEOHOW":"MANUAL","HSIPTHEMES":"CRITICAL INFRASTRUCTURE, PDD-63; EMERGENCY SERVICES AND CONTINUITY OF GOVERNMENT; FIRE STATIONS/EMS STATIONS","NAICSCODE":"922160","NAICSDESCR":"AMBULANCE AND FIRE SERVICE COMBINED","GEOLINKID":"126642125","X":-90.198031099999994,"Y":32.297011599999998,"ST_VENDOR":"NAVTEQ","ST_VERSION":"2007Q2","GEOPREC":"ONENTITY","PHONELOC":"YES","QC_QA":"TGS","STATE_ID":" ","FDID":" ","FRST_MBRS":0,"EMS_MBRS":0,"TOTALPERS":0,"NUMTRKS":0,"NUMABUL":0,"TOTAL_VEHI":0,"NBR_STA":0,"OWNER":" ","LEVEL_":" ","TYPE":" ","SPECIALTY":" ","EMSLICENSE":" ","EMERPHONE":" ","EMS":"Y","PERM_ID":" ","GNIS_ID":" "}},{"type":"Feature","id":4,"geometry":{"type":"Point","coordinates":[-90.196013154119598,32.32650792637746]},"properties":{"OBJECTID":4,"ID":"10573796","NAME":"JACKSON FIRE DEPARTMENT DISTRICT 1 STATION 10","TELEPHONE":"601-960-2110","ADDRESS":"355 WEST WOODROW WILSON AVENUE","ADDRESS2":" ","CITY":"JACKSON","STATE":"MS","ZIP":"39213","ZIPP4":"7596","COUNTY":"HINDS","FIPS":"28049","DIRECTIONS":"LOCATED ON THE S SIDE OF W WOODROW WILSON DR IN BETWEEN GORDON ST AND BAILEY AVE.","EMERGTITLE":" ","EMERGTEL":" ","EMERGEXT":" ","CONTDATE":1218412800000,"CONTHOW":"PHONE","GEODATE":1218412800000,"GEOHOW":"MANUAL","HSIPTHEMES":"CRITICAL INFRASTRUCTURE, PDD-63; EMERGENCY SERVICES AND CONTINUITY OF GOVERNMENT; FIRE STATIONS/EMS STATIONS","NAICSCODE":"922160","NAICSDESCR":"AMBULANCE AND FIRE SERVICE COMBINED","GEOLINKID":"126635602","X":-90.196013199999996,"Y":32.326507900000003,"ST_VENDOR":"NAVTEQ","ST_VERSION":"2007Q2","GEOPREC":"ONENTITY","PHONELOC":"YES","QC_QA":"TGS","STATE_ID":" ","FDID":" ","FRST_MBRS":0,"EMS_MBRS":0,"TOTALPERS":0,"NUMTRKS":0,"NUMABUL":0,"TOTAL_VEHI":0,"NBR_STA":0,"OWNER":" ","LEVEL_":" ","TYPE":" ","SPECIALTY":" ","EMSLICENSE":" ","EMERPHONE":" ","EMS":"Y","PERM_ID":" ","GNIS_ID":" "}},{"type":"Feature","id":5,"geometry":{"type":"Point","coordinates":[-90.257633622836437,32.32962016700796]},"properties":{"OBJECTID":5,"ID":"10573797","NAME":"JACKSON FIRE DEPARTMENT DISTRICT 1 STATION 15","TELEPHONE":"601-960-2115","ADDRESS":"4943 CLINTON BOULEVARD","ADDRESS2":" ","CITY":"JACKSON","STATE":"MS","ZIP":"39209","ZIPP4":"3220","COUNTY":"HINDS","FIPS":"28049","DIRECTIONS":"LOCATED ON THE S SIDE OF THE INTERSECTION OF CLINTON BLVD AND E HILLSDALE DR.","EMERGTITLE":" ","EMERGTEL":" ","EMERGEXT":" ","CONTDATE":1218412800000,"CONTHOW":"PHONE","GEODATE":1218412800000,"GEOHOW":"MANUAL","HSIPTHEMES":"CRITICAL INFRASTRUCTURE, PDD-63; EMERGENCY SERVICES AND CONTINUITY OF GOVERNMENT; FIRE STATIONS/EMS STATIONS","NAICSCODE":"922160","NAICSDESCR":"AMBULANCE AND FIRE SERVICE COMBINED","GEOLINKID":"114378298","X":-90.257633600000005,"Y":32.329620200000001,"ST_VENDOR":"NAVTEQ","ST_VERSION":"2007Q2","GEOPREC":"ONENTITY","PHONELOC":"YES","QC_QA":"TGS","STATE_ID":" ","FDID":" ","FRST_MBRS":0,"EMS_MBRS":0,"TOTALPERS":0,"NUMTRKS":0,"NUMABUL":0,"TOTAL_VEHI":0,"NBR_STA":0,"OWNER":" ","LEVEL_":" ","TYPE":" ","SPECIALTY":" ","EMSLICENSE":" ","EMERPHONE":" ","EMS":"Y","PERM_ID":" ","GNIS_ID":" "}},{"type":"Feature","id":6,"geometry":{"type":"Point","coordinates":[-90.223723327585361,32.319596302583562]},"properties":{"OBJECTID":6,"ID":"10573786","NAME":"JACKSON FIRE DEPARTMENT DISTRICT 1 STATION 6","TELEPHONE":"601-960-2106","ADDRESS":"LIVINGSTON PARK DRIVE","ADDRESS2":" ","CITY":"JACKSON","STATE":"MS","ZIP":"39209","ZIPP4":" ","COUNTY":"HINDS","FIPS":"28049","DIRECTIONS":"LOCATED ON THE NW CORNER OF THE INTERSECTION OF LIVINGSTON PARK DR AND W CAPITOL ST.","EMERGTITLE":" ","EMERGTEL":" ","EMERGEXT":" ","CONTDATE":1218412800000,"CONTHOW":"PHONE","GEODATE":1218412800000,"GEOHOW":"MANUAL","HSIPTHEMES":"CRITICAL INFRASTRUCTURE, PDD-63; EMERGENCY SERVICES AND CONTINUITY OF GOVERNMENT; FIRE STATIONS/EMS STATIONS","NAICSCODE":"922160","NAICSDESCR":"AMBULANCE AND FIRE SERVICE COMBINED","GEOLINKID":"117788279","X":-90.223723300000003,"Y":32.319596300000001,"ST_VENDOR":"NAVTEQ","ST_VERSION":"2007Q2","GEOPREC":"ONENTITY","PHONELOC":"YES","QC_QA":"TGS","STATE_ID":" ","FDID":" ","FRST_MBRS":0,"EMS_MBRS":0,"TOTALPERS":0,"NUMTRKS":0,"NUMABUL":0,"TOTAL_VEHI":0,"NBR_STA":0,"OWNER":" ","LEVEL_":" ","TYPE":" ","SPECIALTY":" ","EMSLICENSE":" ","EMERPHONE":" ","EMS":"Y","PERM_ID":" ","GNIS_ID":" "}},{"type":"Feature","id":7,"geometry":{"type":"Point","coordinates":[-90.253543715518717,32.225158487807711]},"properties":{"OBJECTID":7,"ID":"10573840","NAME":"JACKSON FIRE DEPARTMENT DISTRICT 2 STATION 22","TELEPHONE":"601-960-2122","ADDRESS":"1590 LAKESHORE ROAD","ADDRESS2":" ","CITY":"JACKSON","STATE":"MS","ZIP":"39212","ZIPP4":" ","COUNTY":"HINDS","FIPS":"28049","DIRECTIONS":"LOCATED ON THE NE CORNER OF THE INTERSECTION OF RAINEY RD AND LAKESHORE RD.","EMERGTITLE":" ","EMERGTEL":" ","EMERGEXT":" ","CONTDATE":1218412800000,"CONTHOW":"PHONE","GEODATE":1218412800000,"GEOHOW":"MANUAL","HSIPTHEMES":"CRITICAL INFRASTRUCTURE, PDD-63; EMERGENCY SERVICES AND CONTINUITY OF GOVERNMENT; FIRE STATIONS/EMS STATIONS","NAICSCODE":"922160","NAICSDESCR":"AMBULANCE AND FIRE SERVICE COMBINED","GEOLINKID":"114375810","X":-90.253543699999994,"Y":32.225158499999999,"ST_VENDOR":"NAVTEQ","ST_VERSION":"2007Q2","GEOPREC":"ONENTITY","PHONELOC":"YES","QC_QA":"TGS","STATE_ID":" ","FDID":" ","FRST_MBRS":0,"EMS_MBRS":0,"TOTALPERS":0,"NUMTRKS":0,"NUMABUL":0,"TOTAL_VEHI":0,"NBR_STA":0,"OWNER":" ","LEVEL_":" ","TYPE":" ","SPECIALTY":" ","EMSLICENSE":" ","EMERPHONE":" ","EMS":"Y","PERM_ID":" ","GNIS_ID":" "}},{"type":"Feature","id":8,"geometry":{"type":"Point","coordinates":[-90.282967618526712,32.261101221019167]},"properties":{"OBJECTID":8,"ID":"10573842","NAME":"JACKSON FIRE DEPARTMENT DISTRICT 2 STATION 23","TELEPHONE":"601-960-2123","ADDRESS":"2640 RAYMOND ROAD","ADDRESS2":" ","CITY":"JACKSON","STATE":"MS","ZIP":"39212","ZIPP4":"2251","COUNTY":"HINDS","FIPS":"28049","DIRECTIONS":"LOCATED ON THE NW SIDE OF RAYMOND RD. IN BETWEEN WAYWOOD DR AND FOREST HILL RD.","EMERGTITLE":" ","EMERGTEL":" ","EMERGEXT":" ","CONTDATE":1218412800000,"CONTHOW":"PHONE","GEODATE":1218412800000,"GEOHOW":"MANUAL","HSIPTHEMES":"CRITICAL INFRASTRUCTURE, PDD-63; EMERGENCY SERVICES AND CONTINUITY OF GOVERNMENT; FIRE STATIONS/EMS STATIONS","NAICSCODE":"922160","NAICSDESCR":"FIRE DEPARTMENTS (E.G., GOVERNMENT, VOLUNTEER (EXCEPT PRIVATE))","GEOLINKID":"110310636","X":-90.282967600000006,"Y":32.261101199999999,"ST_VENDOR":"NAVTEQ","ST_VERSION":"2007Q2","GEOPREC":"ONENTITY","PHONELOC":"YES","QC_QA":"TGS","STATE_ID":" ","FDID":" ","FRST_MBRS":0,"EMS_MBRS":0,"TOTALPERS":0,"NUMTRKS":0,"NUMABUL":0,"TOTAL_VEHI":0,"NBR_STA":0,"OWNER":" ","LEVEL_":" ","TYPE":" ","SPECIALTY":" ","EMSLICENSE":" ","EMERPHONE":" ","EMS":"N","PERM_ID":" ","GNIS_ID":" "}},{"type":"Feature","id":9,"geometry":{"type":"Point","coordinates":[-90.146454746506663,32.367091433587028]},"properties":{"OBJECTID":9,"ID":"10573867","NAME":"JACKSON FIRE DEPARTMENT DISTRICT 3 STATION 17","TELEPHONE":"601-960-2117","ADDRESS":"1941 CANTON MART ROAD","ADDRESS2":" ","CITY":"JACKSON","STATE":"MS","ZIP":"39211","ZIPP4":" ","COUNTY":"HINDS","FIPS":"28049","DIRECTIONS":"LOCATED ON THE NW CORNER OF THE INTERSECTION OF CANTON MART RD AND WAYNELAND DR.","EMERGTITLE":" ","EMERGTEL":" ","EMERGEXT":" ","CONTDATE":1218412800000,"CONTHOW":"PHONE","GEODATE":1218412800000,"GEOHOW":"MANUAL","HSIPTHEMES":"CRITICAL INFRASTRUCTURE, PDD-63; EMERGENCY SERVICES AND CONTINUITY OF GOVERNMENT; FIRE STATIONS/EMS STATIONS","NAICSCODE":"922160","NAICSDESCR":"AMBULANCE AND FIRE SERVICE COMBINED","GEOLINKID":"99331873","X":-90.146454700000007,"Y":32.3670914,"ST_VENDOR":"NAVTEQ","ST_VERSION":"2007Q2","GEOPREC":"ONENTITY","PHONELOC":"YES","QC_QA":"TGS","STATE_ID":" ","FDID":" ","FRST_MBRS":0,"EMS_MBRS":0,"TOTALPERS":0,"NUMTRKS":0,"NUMABUL":0,"TOTAL_VEHI":0,"NBR_STA":0,"OWNER":" ","LEVEL_":" ","TYPE":" ","SPECIALTY":" ","EMSLICENSE":" ","EMERPHONE":" ","EMS":"Y","PERM_ID":" ","GNIS_ID":" "}},{"type":"Feature","id":10,"geometry":{"type":"Point","coordinates":[-90.266013531811524,32.357996868398573]},"properties":{"OBJECTID":10,"ID":"10573896","NAME":"JACKSON FIRE DEPARTMENT DISTRICT 3 STATION 26","TELEPHONE":"601-960-2126","ADDRESS":"2223 FLAG CHAPEL ROAD","ADDRESS2":" ","CITY":"JACKSON","STATE":"MS","ZIP":"39209","ZIPP4":"2210","COUNTY":"HINDS","FIPS":"28049","DIRECTIONS":"LOCATED ON THE W SIDE OF N FLAG CHAPEL RD ABOUT .1 MI N OF W NORTHSIDE DR.","EMERGTITLE":" ","EMERGTEL":" ","EMERGEXT":" ","CONTDATE":1218412800000,"CONTHOW":"PHONE","GEODATE":1218412800000,"GEOHOW":"MANUAL","HSIPTHEMES":"CRITICAL INFRASTRUCTURE, PDD-63; EMERGENCY SERVICES AND CONTINUITY OF GOVERNMENT; FIRE STATIONS/EMS STATIONS","NAICSCODE":"922160","NAICSDESCR":"AMBULANCE AND FIRE SERVICE COMBINED","GEOLINKID":"99332890","X":-90.2660135,"Y":32.357996900000003,"ST_VENDOR":"NAVTEQ","ST_VERSION":"2007Q2","GEOPREC":"ONENTITY","PHONELOC":"YES","QC_QA":"TGS","STATE_ID":" ","FDID":" ","FRST_MBRS":0,"EMS_MBRS":0,"TOTALPERS":0,"NUMTRKS":0,"NUMABUL":0,"TOTAL_VEHI":0,"NBR_STA":0,"OWNER":" ","LEVEL_":" ","TYPE":" ","SPECIALTY":" ","EMSLICENSE":" ","EMERPHONE":" ","EMS":"Y","PERM_ID":" ","GNIS_ID":" "}},{"type":"Feature","id":11,"geometry":{"type":"Point","coordinates":[-90.185403196316329,32.294773638328593]},"properties":{"OBJECTID":11,"ID":"10512305","NAME":"JACKSON FIRE DEPARTMENT DISTRICT 1 STATION 1","TELEPHONE":"601-960-2101","ADDRESS":"555 SOUTH WEST STREET","ADDRESS2":" ","CITY":"JACKSON","STATE":"MS","ZIP":"39201","ZIPP4":"5202","COUNTY":"HINDS","FIPS":"28049","DIRECTIONS":"LOCATED ON THE NW CORNER OF THE INTERSECTION OF S WEST ST AND E SOUTH ST.","EMERGTITLE":" ","EMERGTEL":" ","EMERGEXT":" ","CONTDATE":1218412800000,"CONTHOW":"PHONE","GEODATE":1218412800000,"GEOHOW":"MANUAL","HSIPTHEMES":"CRITICAL INFRASTRUCTURE, PDD-63; EMERGENCY SERVICES AND CONTINUITY OF GOVERNMENT; FIRE STATIONS/EMS STATIONS","NAICSCODE":"922160","NAICSDESCR":"AMBULANCE AND FIRE SERVICE COMBINED","GEOLINKID":"99783753","X":-90.185403199999996,"Y":32.294773599999999,"ST_VENDOR":"NAVTEQ","ST_VERSION":"2007Q2","GEOPREC":"ONENTITY","PHONELOC":"YES","QC_QA":"TGS","STATE_ID":" ","FDID":"25007","FRST_MBRS":0,"EMS_MBRS":0,"TOTALPERS":430,"NUMTRKS":0,"NUMABUL":0,"TOTAL_VEHI":0,"NBR_STA":21,"OWNER":"LOCAL","LEVEL_":" ","TYPE":"CAREER","SPECIALTY":" ","EMSLICENSE":" ","EMERPHONE":" ","EMS":"Y","PERM_ID":" ","GNIS_ID":" "}},{"type":"Feature","id":12,"geometry":{"type":"Point","coordinates":[-90.236085147516377,32.271508765615934]},"properties":{"OBJECTID":12,"ID":"10573827","NAME":"JACKSON FIRE DEPARTMENT DISTRICT 2 STATION 12","TELEPHONE":"601-960-2112","ADDRESS":"2435 MCFADDEN ROAD","ADDRESS2":" ","CITY":"JACKSON","STATE":"MS","ZIP":"39204","ZIPP4":"5224","COUNTY":"HINDS","FIPS":"28049","DIRECTIONS":"LOCATED ON THE NW CORNER OF THE INTERSECTION OF JOANNE ST AND MCFADDEN RD.","EMERGTITLE":" ","EMERGTEL":" ","EMERGEXT":" ","CONTDATE":1218412800000,"CONTHOW":"PHONE","GEODATE":1218412800000,"GEOHOW":"MANUAL","HSIPTHEMES":"CRITICAL INFRASTRUCTURE, PDD-63; EMERGENCY SERVICES AND CONTINUITY OF GOVERNMENT; FIRE STATIONS/EMS STATIONS","NAICSCODE":"922160","NAICSDESCR":"AMBULANCE AND FIRE SERVICE COMBINED","GEOLINKID":"99346977","X":-90.236085099999997,"Y":32.271508799999999,"ST_VENDOR":"NAVTEQ","ST_VERSION":"2007Q2","GEOPREC":"ONENTITY","PHONELOC":"YES","QC_QA":"TGS","STATE_ID":" ","FDID":" ","FRST_MBRS":0,"EMS_MBRS":0,"TOTALPERS":0,"NUMTRKS":0,"NUMABUL":0,"TOTAL_VEHI":0,"NBR_STA":0,"OWNER":" ","LEVEL_":" ","TYPE":" ","SPECIALTY":" ","EMSLICENSE":" ","EMERPHONE":" ","EMS":"Y","PERM_ID":" ","GNIS_ID":" "}},{"type":"Feature","id":13,"geometry":{"type":"Point","coordinates":[-90.232735808623943,32.297374273312187]},"properties":{"OBJECTID":13,"ID":"10573832","NAME":"JACKSON FIRE DEPARTMENT DISTRICT 2 STATION 14","TELEPHONE":"601-960-2114","ADDRESS":"3208 JOHN R LYNCH STREET","ADDRESS2":" ","CITY":"JACKSON","STATE":"MS","ZIP":"39209","ZIPP4":"7205","COUNTY":"HINDS","FIPS":"28049","DIRECTIONS":"LOCATED ON THE SE CORNER OF THE INTERSECTION OF JOHN R LYNCH ST AND BUCHANAN ST.","EMERGTITLE":" ","EMERGTEL":" ","EMERGEXT":" ","CONTDATE":1218412800000,"CONTHOW":"PHONE","GEODATE":1218412800000,"GEOHOW":"MANUAL","HSIPTHEMES":"CRITICAL INFRASTRUCTURE, PDD-63; EMERGENCY SERVICES AND CONTINUITY OF GOVERNMENT; FIRE STATIONS/EMS STATIONS","NAICSCODE":"922160","NAICSDESCR":"AMBULANCE AND FIRE SERVICE COMBINED","GEOLINKID":"99344144","X":-90.2327358,"Y":32.297374300000001,"ST_VENDOR":"NAVTEQ","ST_VERSION":"2007Q2","GEOPREC":"ONENTITY","PHONELOC":"YES","QC_QA":"TGS","STATE_ID":" ","FDID":" ","FRST_MBRS":0,"EMS_MBRS":0,"TOTALPERS":0,"NUMTRKS":0,"NUMABUL":0,"TOTAL_VEHI":0,"NBR_STA":0,"OWNER":" ","LEVEL_":" ","TYPE":" ","SPECIALTY":" ","EMSLICENSE":" ","EMERPHONE":" ","EMS":"Y","PERM_ID":" ","GNIS_ID":" "}},{"type":"Feature","id":14,"geometry":{"type":"Point","coordinates":[-90.281757675873905,32.314791626875611]},"properties":{"OBJECTID":14,"ID":"10573843","NAME":"JACKSON FIRE DEPARTMENT DISTRICT 2 STATION 24","TELEPHONE":"601-960-2124","ADDRESS":"1240 WIGGINS ROAD","ADDRESS2":" ","CITY":"JACKSON","STATE":"MS","ZIP":"39209","ZIPP4":"4449","COUNTY":"HINDS","FIPS":"28049","DIRECTIONS":"LOCATED ON THE E SIDE OF WIGGINS RD IN BETWEEN SHAW RD AND WILLIAMS DR.","EMERGTITLE":" ","EMERGTEL":" ","EMERGEXT":" ","CONTDATE":1218412800000,"CONTHOW":"PHONE","GEODATE":1218412800000,"GEOHOW":"MANUAL","HSIPTHEMES":"CRITICAL INFRASTRUCTURE, PDD-63; EMERGENCY SERVICES AND CONTINUITY OF GOVERNMENT; FIRE STATIONS/EMS STATIONS","NAICSCODE":"922160","NAICSDESCR":"AMBULANCE AND FIRE SERVICE COMBINED","GEOLINKID":"114376798","X":-90.2817577,"Y":32.3147916,"ST_VENDOR":"NAVTEQ","ST_VERSION":"2007Q2","GEOPREC":"ONENTITY","PHONELOC":"YES","QC_QA":"TGS","STATE_ID":" ","FDID":" ","FRST_MBRS":0,"EMS_MBRS":0,"TOTALPERS":0,"NUMTRKS":0,"NUMABUL":0,"TOTAL_VEHI":0,"NBR_STA":0,"OWNER":" ","LEVEL_":" ","TYPE":" ","SPECIALTY":" ","EMSLICENSE":" ","EMERPHONE":" ","EMS":"Y","PERM_ID":" ","GNIS_ID":" "}},{"type":"Feature","id":15,"geometry":{"type":"Point","coordinates":[-90.19320296878935,32.380852003646133]},"properties":{"OBJECTID":15,"ID":"10573890","NAME":"JACKSON FIRE DEPARTMENT DISTRICT 3 STATION 21","TELEPHONE":"601-960-2121","ADDRESS":"5381 WATKINS DRIVE","ADDRESS2":" ","CITY":"JACKSON","STATE":"MS","ZIP":"39206","ZIPP4":"2635","COUNTY":"HINDS","FIPS":"28049","DIRECTIONS":"LOCATED ON THE SW CORNER OF THE INTERSECTION OF NORTHGATE BLVD AND WATKINS DR.","EMERGTITLE":" ","EMERGTEL":" ","EMERGEXT":" ","CONTDATE":1218412800000,"CONTHOW":"PHONE","GEODATE":1218412800000,"GEOHOW":"MANUAL","HSIPTHEMES":"CRITICAL INFRASTRUCTURE, PDD-63; EMERGENCY SERVICES AND CONTINUITY OF GOVERNMENT; FIRE STATIONS/EMS STATIONS","NAICSCODE":"922160","NAICSDESCR":"AMBULANCE AND FIRE SERVICE COMBINED","GEOLINKID":"117788230","X":-90.193202999999997,"Y":32.380851999999997,"ST_VENDOR":"NAVTEQ","ST_VERSION":"2007Q2","GEOPREC":"ONENTITY","PHONELOC":"YES","QC_QA":"TGS","STATE_ID":" ","FDID":" ","FRST_MBRS":0,"EMS_MBRS":0,"TOTALPERS":0,"NUMTRKS":0,"NUMABUL":0,"TOTAL_VEHI":0,"NBR_STA":0,"OWNER":" ","LEVEL_":" ","TYPE":" ","SPECIALTY":" ","EMSLICENSE":" ","EMERPHONE":" ","EMS":"Y","PERM_ID":" ","GNIS_ID":" "}},{"type":"Feature","id":16,"geometry":{"type":"Point","coordinates":[-90.300558113111677,32.239974436928222]},"properties":{"OBJECTID":16,"ID":"10573848","NAME":"JACKSON FIRE DEPARTMENT DISTRICT 2 STATION 25","TELEPHONE":"601-960-2125","ADDRESS":"4048 SOUTH SIWELL ROAD","ADDRESS2":" ","CITY":"JACKSON","STATE":"MS","ZIP":"39212","ZIPP4":"4371","COUNTY":"HINDS","FIPS":"28049","DIRECTIONS":"LOCATED ON THE NE CORNER OF THE INTERSECTION OF MCCLURE RD AND S SIWELL RD.","EMERGTITLE":" ","EMERGTEL":" ","EMERGEXT":" ","CONTDATE":1218412800000,"CONTHOW":"PHONE","GEODATE":1218412800000,"GEOHOW":"MANUAL","HSIPTHEMES":"CRITICAL INFRASTRUCTURE, PDD-63; EMERGENCY SERVICES AND CONTINUITY OF GOVERNMENT; FIRE STATIONS/EMS STATIONS","NAICSCODE":"922160","NAICSDESCR":"AMBULANCE AND FIRE SERVICE COMBINED","GEOLINKID":"99349580","X":-90.300558100000003,"Y":32.239974400000001,"ST_VENDOR":"NAVTEQ","ST_VERSION":"2007Q2","GEOPREC":"ONENTITY","PHONELOC":"YES","QC_QA":"TGS","STATE_ID":" ","FDID":" ","FRST_MBRS":0,"EMS_MBRS":0,"TOTALPERS":0,"NUMTRKS":0,"NUMABUL":0,"TOTAL_VEHI":0,"NBR_STA":0,"OWNER":" ","LEVEL_":" ","TYPE":" ","SPECIALTY":" ","EMSLICENSE":" ","EMERPHONE":" ","EMS":"Y","PERM_ID":" ","GNIS_ID":" "}},{"type":"Feature","id":17,"geometry":{"type":"Point","coordinates":[-90.224264469119248,32.348166240490144]},"properties":{"OBJECTID":17,"ID":"10573885","NAME":"JACKSON FIRE DEPARTMENT DISTRICT 3 STATION 20","TELEPHONE":"601-960-2120","ADDRESS":"4445 MEDGAR EVERS BOULEVARD","ADDRESS2":" ","CITY":"JACKSON","STATE":"MS","ZIP":"39213","ZIPP4":"5202","COUNTY":"HINDS","FIPS":"28049","DIRECTIONS":"LOCATED ON THE SW SIDE OF MEDGAR EVERS BLVD, .1 MI NW OF SUNSET DR.","EMERGTITLE":" ","EMERGTEL":" ","EMERGEXT":" ","CONTDATE":1218412800000,"CONTHOW":"PHONE","GEODATE":1218412800000,"GEOHOW":"MANUAL","HSIPTHEMES":"CRITICAL INFRASTRUCTURE, PDD-63; EMERGENCY SERVICES AND CONTINUITY OF GOVERNMENT; FIRE STATIONS/EMS STATIONS","NAICSCODE":"922160","NAICSDESCR":"AMBULANCE AND FIRE SERVICE COMBINED","GEOLINKID":"99169253","X":-90.224264500000004,"Y":32.348166200000001,"ST_VENDOR":"NAVTEQ","ST_VERSION":"2007Q2","GEOPREC":"ONENTITY","PHONELOC":"YES","QC_QA":"TGS","STATE_ID":" ","FDID":" ","FRST_MBRS":0,"EMS_MBRS":0,"TOTALPERS":0,"NUMTRKS":0,"NUMABUL":0,"TOTAL_VEHI":0,"NBR_STA":0,"OWNER":" ","LEVEL_":" ","TYPE":" ","SPECIALTY":" ","EMSLICENSE":" ","EMERPHONE":" ","EMS":"Y","PERM_ID":" ","GNIS_ID":" "}},{"type":"Feature","id":18,"geometry":{"type":"Point","coordinates":[-90.150454059626284,32.334396467739943]},"properties":{"OBJECTID":18,"ID":"10573625","NAME":"JACKSON FIRE DEPARTMENT DISTRICT 3 STATION 16","TELEPHONE":"601-960-2116","ADDRESS":"1400 LAKELAND DRIVE","ADDRESS2":" ","CITY":"JACKSON","STATE":"MS","ZIP":"39216","ZIPP4":"4718","COUNTY":"HINDS","FIPS":"28049","DIRECTIONS":"LOCATED ON THE NE CORNER OF THE INTERSECTION OF LAKELAND LN AND LAKELAND DR.","EMERGTITLE":" ","EMERGTEL":" ","EMERGEXT":" ","CONTDATE":1218412800000,"CONTHOW":"PHONE","GEODATE":1218412800000,"GEOHOW":"MANUAL","HSIPTHEMES":"CRITICAL INFRASTRUCTURE, PDD-63; EMERGENCY SERVICES AND CONTINUITY OF GOVERNMENT; FIRE STATIONS/EMS STATIONS","NAICSCODE":"922160","NAICSDESCR":"AMBULANCE AND FIRE SERVICE COMBINED","GEOLINKID":"117784804","X":-90.150454100000005,"Y":32.334396499999997,"ST_VENDOR":"NAVTEQ","ST_VERSION":"2007Q2","GEOPREC":"ONENTITY","PHONELOC":"YES","QC_QA":"TGS","STATE_ID":" ","FDID":" ","FRST_MBRS":0,"EMS_MBRS":0,"TOTALPERS":0,"NUMTRKS":0,"NUMABUL":0,"TOTAL_VEHI":0,"NBR_STA":0,"OWNER":" ","LEVEL_":" ","TYPE":" ","SPECIALTY":" ","EMSLICENSE":" ","EMERPHONE":" ","EMS":"Y","PERM_ID":" ","GNIS_ID":" "}},{"type":"Feature","id":19,"geometry":{"type":"Point","coordinates":[-90.174470832259246,32.356390656115948]},"properties":{"OBJECTID":19,"ID":"10573570","NAME":"JACKSON FIRE DEPARTMENT DISTRICT 3 STATION 7","TELEPHONE":"601-960-2107","ADDRESS":"4265 NORTH STATE STREET","ADDRESS2":" ","CITY":"JACKSON","STATE":"MS","ZIP":"39206","ZIPP4":"5246","COUNTY":"HINDS","FIPS":"28049","DIRECTIONS":"LOCATED ON THE W SIDE OF N STATE ST IN BETWEEN ROBINHOOD RD AND E NORTHSIDE DR.","EMERGTITLE":" ","EMERGTEL":" ","EMERGEXT":" ","CONTDATE":1218412800000,"CONTHOW":"PHONE","GEODATE":1218412800000,"GEOHOW":"MANUAL","HSIPTHEMES":"CRITICAL INFRASTRUCTURE, PDD-63; EMERGENCY SERVICES AND CONTINUITY OF GOVERNMENT; FIRE STATIONS/EMS STATIONS","NAICSCODE":"922160","NAICSDESCR":"AMBULANCE AND FIRE SERVICE COMBINED","GEOLINKID":"114377144","X":-90.174470799999995,"Y":32.356390699999999,"ST_VENDOR":"NAVTEQ","ST_VERSION":"2007Q2","GEOPREC":"ONENTITY","PHONELOC":"YES","QC_QA":"TGS","STATE_ID":" ","FDID":" ","FRST_MBRS":0,"EMS_MBRS":0,"TOTALPERS":0,"NUMTRKS":0,"NUMABUL":0,"TOTAL_VEHI":0,"NBR_STA":0,"OWNER":" ","LEVEL_":" ","TYPE":" ","SPECIALTY":" ","EMSLICENSE":" ","EMERPHONE":" ","EMS":"Y","PERM_ID":" ","GNIS_ID":" "}},{"type":"Feature","id":20,"geometry":{"type":"Point","coordinates":[-90.183305747807211,32.311888218157044]},"properties":{"OBJECTID":20,"ID":"10573779","NAME":"JACKSON FIRE DEPARTMENT DISTRICT 1 STATION 3","TELEPHONE":"601-960-2103","ADDRESS":"EAST FORTIFICATION STREET","ADDRESS2":" ","CITY":"JACKSON","STATE":"MS","ZIP":"39202","ZIPP4":" ","COUNTY":"HINDS","FIPS":"28049","DIRECTIONS":"LOCATED ON THE S SIDE OF E FORTIFICATION ST IN BETWEEN N LAMAR ST AND CRESTVIEW ST.","EMERGTITLE":" ","EMERGTEL":" ","EMERGEXT":" ","CONTDATE":1218412800000,"CONTHOW":"PHONE","GEODATE":1218412800000,"GEOHOW":"MANUAL","HSIPTHEMES":"CRITICAL INFRASTRUCTURE, PDD-63; EMERGENCY SERVICES AND CONTINUITY OF GOVERNMENT; FIRE STATIONS/EMS STATIONS","NAICSCODE":"922160","NAICSDESCR":"AMBULANCE AND FIRE SERVICE COMBINED","GEOLINKID":"99342216","X":-90.183305700000005,"Y":32.311888199999999,"ST_VENDOR":"NAVTEQ","ST_VERSION":"2007Q2","GEOPREC":"ONENTITY","PHONELOC":"YES","QC_QA":"TGS","STATE_ID":" ","FDID":" ","FRST_MBRS":0,"EMS_MBRS":0,"TOTALPERS":0,"NUMTRKS":0,"NUMABUL":0,"TOTAL_VEHI":0,"NBR_STA":0,"OWNER":" ","LEVEL_":" ","TYPE":" ","SPECIALTY":" ","EMSLICENSE":" ","EMERPHONE":" ","EMS":"Y","PERM_ID":" ","GNIS_ID":" "}},{"type":"Feature","id":21,"geometry":{"type":"Point","coordinates":[-90.227596447170498,32.247084860585886]},"properties":{"OBJECTID":21,"ID":"10573808","NAME":"JACKSON FIRE DEPARTMENT DISTRICT 2 STATION 11","TELEPHONE":"601-960-2111","ADDRESS":"TERRY ROAD","ADDRESS2":" ","CITY":"JACKSON","STATE":"MS","ZIP":"39212","ZIPP4":" ","COUNTY":"HINDS","FIPS":"28049","DIRECTIONS":"LOCATED ON THE NE CORNER OF THE INTERSECTION OF FLEMING RD AND TERRY RD.","EMERGTITLE":" ","EMERGTEL":" ","EMERGEXT":" ","CONTDATE":1218412800000,"CONTHOW":"PHONE","GEODATE":1218412800000,"GEOHOW":"MANUAL","HSIPTHEMES":"CRITICAL INFRASTRUCTURE, PDD-63; EMERGENCY SERVICES AND CONTINUITY OF GOVERNMENT; FIRE STATIONS/EMS STATIONS","NAICSCODE":"922160","NAICSDESCR":"AMBULANCE AND FIRE SERVICE COMBINED","GEOLINKID":"99169664","X":-90.227596399999996,"Y":32.247084899999997,"ST_VENDOR":"NAVTEQ","ST_VERSION":"2007Q2","GEOPREC":"ONENTITY","PHONELOC":"YES","QC_QA":"TGS","STATE_ID":" ","FDID":" ","FRST_MBRS":0,"EMS_MBRS":0,"TOTALPERS":0,"NUMTRKS":0,"NUMABUL":0,"TOTAL_VEHI":0,"NBR_STA":0,"OWNER":" ","LEVEL_":" ","TYPE":" ","SPECIALTY":" ","EMSLICENSE":" ","EMERPHONE":" ","EMS":"Y","PERM_ID":" ","GNIS_ID":" "}}]}