{"type":"FeatureCollection","features":[{"type":"Feature","id":1,"geometry":{"type":"Point","coordinates":[-90.23863529572472,32.32029689423851]},"properties":{"OBJECTID":1,"NCESID":"280219000395","NAME":"LAKE ELEMENTARY SCHOOL","ADDRESS":"472 MT VERNON AVENUE","CITY":"JACKSON","STATE":"MS","ZIP":"39209","ZIP4":"NOT AVAILABLE","TELEPHONE":"(601) 960-5308","TYPE":"1","STATUS":"1","POPULATION":323,"COUNTY":"HINDS","COUNTYFIPS":"28049","COUNTRY":"USA","LATITUDE":32.320296894000002,"LONGITUDE":-90.238635295999998,"NAICS_CODE":"611110","NAICS_DESC":"ELEMENTARY AND SECONDARY SCHOOLS","SOURCE":"http://nces.ed.gov/GLOBALLOCATOR/sch_info_popup.asp?Type=Public&ID=280219000395","SOURCEDATE":1264723200000,"VAL_METHOD":"IMAGERY/OTHER","VAL_DATE":1273104000000,"WEBSITE":"http://nces.ed.gov/GLOBALLOCATOR/sch_info_popup.asp?Type=Public&ID=280219000395","LEVEL_":"1","ENROLLMENT":304,"ST_GRADE":"PK","END_GRADE":"05","DISTRICTID":"2802190","FT_TEACHER":19,"SHELTER_ID":"NOT AVAILABLE"}},{"type":"Feature","id":2,"geometry":{"type":"Point","coordinates":[-90.218319980914316,32.27475057971742]},"properties":{"OBJECTID":2,"NCESID":"280219000398","NAME":"LESTER ELEMENTARY SCHOOL","ADDRESS":"2350 OAKHURST DRIVE","CITY":"JACKSON","STATE":"MS","ZIP":"39204","ZIP4":"NOT AVAILABLE","TELEPHONE":"(601) 371-4339","TYPE":"1","STATUS":"1","POPULATION":413,"COUNTY":"HINDS","COUNTYFIPS":"28049","COUNTRY":"USA","LATITUDE":32.274750580000003,"LONGITUDE":-90.218319980999993,"NAICS_CODE":"611110","NAICS_DESC":"ELEMENTARY AND SECONDARY SCHOOLS","SOURCE":"http://nces.ed.gov/GLOBALLOCATOR/sch_info_popup.asp?Type=Public&ID=280219000398","SOURCEDATE":1264723200000,"VAL_METHOD":"IMAGERY/OTHER","VAL_DATE":1273104000000,"WEBSITE":"http://nces.ed.gov/GLOBALLOCATOR/sch_info_popup.asp?Type=Public&ID=280219000398","LEVEL_":"1","ENROLLMENT":392,"ST_GRADE":"KG","END_GRADE":"05","DISTRICTID":"2802190","FT_TEACHER":21,"SHELTER_ID":"NOT AVAILABLE"}},{"type":"Feature","id":3,"geometry":{"type":"Point","coordinates":[-90.174261060369048,32.382095350638174]},"properties":{"OBJECTID":3,"NCESID":"280219001054","NAME":"NORTH JACKSON ELEMENTARY SCHOOL","ADDRESS":"650 N. JAMES M. DAVIS DRIVE","CITY":"JACKSON","STATE":"MS","ZIP":"39206","ZIP4":"NOT AVAILABLE","TELEPHONE":"(601) 987-3528","TYPE":"1","STATUS":"1","POPULATION":629,"COUNTY":"HINDS","COUNTYFIPS":"28049","COUNTRY":"USA","LATITUDE":32.382095350999997,"LONGITUDE":-90.174261059999907,"NAICS_CODE":"611110","NAICS_DESC":"ELEMENTARY AND SECONDARY SCHOOLS","SOURCE":"http://nces.ed.gov/GLOBALLOCATOR/sch_info_popup.asp?Type=Public&ID=280219001054","SOURCEDATE":1260403200000,"VAL_METHOD":"IMAGERY/OTHER","VAL_DATE":1273104000000,"WEBSITE":"http://nces.ed.gov/GLOBALLOCATOR/sch_info_popup.asp?Type=Public&ID=280219001054","LEVEL_":"1","ENROLLMENT":599,"ST_GRADE":"PK","END_GRADE":"05","DISTRICTID":"2802190","FT_TEACHER":30,"SHELTER_ID":"NOT AVAILABLE"}},{"type":"Feature","id":4,"geometry":{"type":"Point","coordinates":[-90.156202892067398,32.342084013652574]},"properties":{"OBJECTID":4,"NCESID":"280118901194","NAME":"MS SCHOOL FOR THE BLIND HS","ADDRESS":"1252 EASTOVER DRIVE","CITY":"JACKSON","STATE":"MS","ZIP":"39211","ZIP4":"NOT AVAILABLE","TELEPHONE":"(601) 984-8200","TYPE":"1","STATUS":"1","POPULATION":77,"COUNTY":"HINDS","COUNTYFIPS":"28049","COUNTRY":"USA","LATITUDE":32.3420840140001,"LONGITUDE":-90.156202891999996,"NAICS_CODE":"611110","NAICS_DESC":"ELEMENTARY AND SECONDARY SCHOOLS","SOURCE":"http://nces.ed.gov/GLOBALLOCATOR/sch_info_popup.asp?Type=Public&ID=280118901194","SOURCEDATE":1260403200000,"VAL_METHOD":"IMAGERY/OTHER","VAL_DATE":1273104000000,"WEBSITE":"http://nces.ed.gov/GLOBALLOCATOR/sch_info_popup.asp?Type=Public&ID=280118901194","LEVEL_":"4","ENROLLMENT":54,"ST_GRADE":"PK","END_GRADE":"12","DISTRICTID":"2801189","FT_TEACHER":23,"SHELTER_ID":"NOT AVAILABLE"}},{"type":"Feature","id":5,"geometry":{"type":"Point","coordinates":[-90.242551906346051,32.330911886288789]},"properties":{"OBJECTID":5,"NCESID":"280219000385","NAME":"FRENCH ELEMENTARY SCHOOL","ADDRESS":"311 JOEL AVENUE","CITY":"JACKSON","STATE":"MS","ZIP":"39209","ZIP4":"NOT AVAILABLE","TELEPHONE":"(601) 960-5316","TYPE":"1","STATUS":"1","POPULATION":277,"COUNTY":"HINDS","COUNTYFIPS":"28049","COUNTRY":"USA","LATITUDE":32.330911886000003,"LONGITUDE":-90.242551906000003,"NAICS_CODE":"611110","NAICS_DESC":"ELEMENTARY AND SECONDARY SCHOOLS","SOURCE":"http://nces.ed.gov/GLOBALLOCATOR/sch_info_popup.asp?Type=Public&ID=280219000385","SOURCEDATE":1260316800000,"VAL_METHOD":"IMAGERY","VAL_DATE":1369699200000,"WEBSITE":"http://nces.ed.gov/GLOBALLOCATOR/sch_info_popup.asp?Type=Public&ID=280219000385","LEVEL_":"1","ENROLLMENT":260,"ST_GRADE":"PK","END_GRADE":"05","DISTRICTID":"2802190","FT_TEACHER":17,"SHELTER_ID":"10807710"}},{"type":"Feature","id":6,"geometry":{"type":"Point","coordinates":[-90.258791499135384,32.261509601893003]},"properties":{"OBJECTID":6,"NCESID":"280219000404","NAME":"OAK FOREST ELEMENTARY SCHOOL","ADDRESS":"1831 SMALLWOOD DRIVE","CITY":"JACKSON","STATE":"MS","ZIP":"39212","ZIP4":"NOT AVAILABLE","TELEPHONE":"(601) 371-4330","TYPE":"1","STATUS":"1","POPULATION":464,"COUNTY":"HINDS","COUNTYFIPS":"28049","COUNTRY":"USA","LATITUDE":32.261509601999997,"LONGITUDE":-90.258791498999997,"NAICS_CODE":"611110","NAICS_DESC":"ELEMENTARY AND SECONDARY SCHOOLS","SOURCE":"http://nces.ed.gov/GLOBALLOCATOR/sch_info_popup.asp?Type=Public&ID=280219000404","SOURCEDATE":1260403200000,"VAL_METHOD":"IMAGERY/OTHER","VAL_DATE":1294099200000,"WEBSITE":"http://nces.ed.gov/GLOBALLOCATOR/sch_info_popup.asp?Type=Public&ID=280219000404","LEVEL_":"1","ENROLLMENT":441,"ST_GRADE":"KG","END_GRADE":"05","DISTRICTID":"2802190","FT_TEACHER":23,"SHELTER_ID":"10807733"}},{"type":"Feature","id":7,"geometry":{"type":"Point","coordinates":[-90.221499923595303,32.252609862846803]},"properties":{"OBJECTID":7,"NCESID":"280219000421","NAME":"WHITTEN MIDDLE SCHOOL","ADDRESS":"210 DANIEL LAKE BOULEVARD","CITY":"JACKSON","STATE":"MS","ZIP":"39212","ZIP4":"NOT AVAILABLE","TELEPHONE":"(601) 371-4309","TYPE":"1","STATUS":"1","POPULATION":571,"COUNTY":"HINDS","COUNTYFIPS":"28049","COUNTRY":"USA","LATITUDE":32.252609863000004,"LONGITUDE":-90.2214999239999,"NAICS_CODE":"611110","NAICS_DESC":"ELEMENTARY AND SECONDARY SCHOOLS","SOURCE":"http://nces.ed.gov/GLOBALLOCATOR/sch_info_popup.asp?Type=Public&ID=280219000421","SOURCEDATE":1260403200000,"VAL_METHOD":"IMAGERY/OTHER","VAL_DATE":1273104000000,"WEBSITE":"http://nces.ed.gov/GLOBALLOCATOR/sch_info_popup.asp?Type=Public&ID=280219000421","LEVEL_":"2","ENROLLMENT":531,"ST_GRADE":"06","END_GRADE":"08","DISTRICTID":"2802190","FT_TEACHER":40,"SHELTER_ID":"NOT AVAILABLE"}},{"type":"Feature","id":8,"geometry":{"type":"Point","coordinates":[-90.123019928565881,32.369652519720113]},"properties":{"OBJECTID":8,"NCESID":"280219000400","NAME":"MC LEOD ELEMENTARY SCHOOL","ADDRESS":"1616 SANDLEWOOD PLACE","CITY":"JACKSON","STATE":"MS","ZIP":"39211","ZIP4":"NOT AVAILABLE","TELEPHONE":"(601) 987-3597","TYPE":"1","STATUS":"1","POPULATION":551,"COUNTY":"HINDS","COUNTYFIPS":"28049","COUNTRY":"USA","LATITUDE":32.369652520000002,"LONGITUDE":-90.123019928999994,"NAICS_CODE":"611110","NAICS_DESC":"ELEMENTARY AND SECONDARY SCHOOLS","SOURCE":"http://nces.ed.gov/GLOBALLOCATOR/sch_info_popup.asp?Type=Public&ID=280219000400","SOURCEDATE":1260403200000,"VAL_METHOD":"IMAGERY/OTHER","VAL_DATE":1273104000000,"WEBSITE":"http://nces.ed.gov/GLOBALLOCATOR/sch_info_popup.asp?Type=Public&ID=280219000400","LEVEL_":"1","ENROLLMENT":526,"ST_GRADE":"KG","END_GRADE":"05","DISTRICTID":"2802190","FT_TEACHER":25,"SHELTER_ID":"NOT AVAILABLE"}},{"type":"Feature","id":9,"geometry":{"type":"Point","coordinates":[-90.226096793346997,32.308151049026179]},"properties":{"OBJECTID":9,"NCESID":"280219000378","NAME":"CAREER DEVELOPMENT CENTER","ADDRESS":"2703 FIRST AVENUE","CITY":"JACKSON","STATE":"MS","ZIP":"39209","ZIP4":"NOT AVAILABLE","TELEPHONE":"(601) 960-5322","TYPE":"3","STATUS":"1","POPULATION":12,"COUNTY":"HINDS","COUNTYFIPS":"28049","COUNTRY":"USA","LATITUDE":32.308151049000102,"LONGITUDE":-90.226096792999996,"NAICS_CODE":"611110","NAICS_DESC":"ELEMENTARY AND SECONDARY SCHOOLS","SOURCE":"http://nces.ed.gov/GLOBALLOCATOR/sch_info_popup.asp?Type=Public&ID=280219000378","SOURCEDATE":1264723200000,"VAL_METHOD":"IMAGERY/OTHER","VAL_DATE":1273104000000,"WEBSITE":"http://nces.ed.gov/GLOBALLOCATOR/sch_info_popup.asp?Type=Public&ID=280219000378","LEVEL_":"3","ENROLLMENT":0,"ST_GRADE":"09","END_GRADE":"12","DISTRICTID":"2802190","FT_TEACHER":12,"SHELTER_ID":"NOT AVAILABLE"}},{"type":"Feature","id":10,"geometry":{"type":"Point","coordinates":[-90.275776857103935,32.278691928264458]},"properties":{"OBJECTID":10,"NCESID":"280219001364","NAME":"BATES ELEMENTARY SCHOOL","ADDRESS":"3180 MCDOWELL ROAD EXT","CITY":"JACKSON","STATE":"MS","ZIP":"39212","ZIP4":"NOT AVAILABLE","TELEPHONE":"(601) 346-1412","TYPE":"1","STATUS":"1","POPULATION":379,"COUNTY":"HINDS","COUNTYFIPS":"28049","COUNTRY":"USA","LATITUDE":32.2786919280001,"LONGITUDE":-90.275776856999997,"NAICS_CODE":"611110","NAICS_DESC":"ELEMENTARY AND SECONDARY SCHOOLS","SOURCE":"http://nces.ed.gov/GLOBALLOCATOR/sch_info_popup.asp?Type=Public&ID=280219001364","SOURCEDATE":1351814400000,"VAL_METHOD":"GEOCODE","VAL_DATE":1354147200000,"WEBSITE":"http://nces.ed.gov/GLOBALLOCATOR/sch_info_popup.asp?Type=Public&ID=280219001364","LEVEL_":"1","ENROLLMENT":358,"ST_GRADE":"PK","END_GRADE":"05","DISTRICTID":"2802190","FT_TEACHER":21,"SHELTER_ID":"NOT AVAILABLE"}},{"type":"Feature","id":11,"geometry":{"type":"Point","coordinates":[-90.241630664259233,32.359267217331727]},"properties":{"OBJECTID":11,"NCESID":"280219000946","NAME":"CAPITAL CITY ALTERNATIVE SCHOOL","ADDRESS":"2221 BOLING STREET","CITY":"JACKSON","STATE":"MS","ZIP":"39213","ZIP4":"NOT AVAILABLE","TELEPHONE":"(601) 987-3608","TYPE":"4","STATUS":"1","POPULATION":19,"COUNTY":"HINDS","COUNTYFIPS":"28049","COUNTRY":"USA","LATITUDE":32.359267217000003,"LONGITUDE":-90.241630663999999,"NAICS_CODE":"611110","NAICS_DESC":"ELEMENTARY AND SECONDARY SCHOOLS","SOURCE":"http://nces.ed.gov/GLOBALLOCATOR/sch_info_popup.asp?Type=Public&ID=280219000946","SOURCEDATE":1255392000000,"VAL_METHOD":"IMAGERY","VAL_DATE":1369699200000,"WEBSITE":"http://nces.ed.gov/GLOBALLOCATOR/sch_info_popup.asp?Type=Public&ID=280219000946","LEVEL_":"4","ENROLLMENT":0,"ST_GRADE":"04","END_GRADE":"12","DISTRICTID":"2802190","FT_TEACHER":19,"SHELTER_ID":"NOT AVAILABLE"}},{"type":"Feature","id":12,"geometry":{"type":"Point","coordinates":[-90.280924554923203,32.261919962805486]},"properties":{"OBJECTID":12,"NCESID":"280219000384","NAME":"FOREST HILL HIGH SCHOOL","ADDRESS":"2607 RAYMOND ROAD","CITY":"JACKSON","STATE":"MS","ZIP":"39212","ZIP4":"NOT AVAILABLE","TELEPHONE":"(601) 371-4313","TYPE":"1","STATUS":"1","POPULATION":1227,"COUNTY":"HINDS","COUNTYFIPS":"28049","COUNTRY":"USA","LATITUDE":32.261919962999997,"LONGITUDE":-90.280924554999999,"NAICS_CODE":"611110","NAICS_DESC":"ELEMENTARY AND SECONDARY SCHOOLS","SOURCE":"http://nces.ed.gov/GLOBALLOCATOR/sch_info_popup.asp?Type=Public&ID=280219000384","SOURCEDATE":1255392000000,"VAL_METHOD":"IMAGERY","VAL_DATE":1369699200000,"WEBSITE":"http://nces.ed.gov/GLOBALLOCATOR/sch_info_popup.asp?Type=Public&ID=280219000384","LEVEL_":"3","ENROLLMENT":1148,"ST_GRADE":"09","END_GRADE":"12","DISTRICTID":"2802190","FT_TEACHER":79,"SHELTER_ID":"NOT AVAILABLE"}},{"type":"Feature","id":13,"geometry":{"type":"Point","coordinates":[-90.218805039726703,32.289811487790338]},"properties":{"OBJECTID":13,"NCESID":"280219000390","NAME":"JIM HILL HIGH SCHOOL","ADDRESS":"2185 FORTUNE STREET","CITY":"JACKSON","STATE":"MS","ZIP":"39204","ZIP4":"NOT AVAILABLE","TELEPHONE":"(601) 960-5354","TYPE":"1","STATUS":"1","POPULATION":1328,"COUNTY":"HINDS","COUNTYFIPS":"28049","COUNTRY":"USA","LATITUDE":32.289811488000097,"LONGITUDE":-90.218805040000007,"NAICS_CODE":"611110","NAICS_DESC":"ELEMENTARY AND SECONDARY SCHOOLS","SOURCE":"http://nces.ed.gov/GLOBALLOCATOR/sch_info_popup.asp?Type=Public&ID=280219000390","SOURCEDATE":1260403200000,"VAL_METHOD":"IMAGERY/OTHER","VAL_DATE":1273104000000,"WEBSITE":"http://nces.ed.gov/GLOBALLOCATOR/sch_info_popup.asp?Type=Public&ID=280219000390","LEVEL_":"3","ENROLLMENT":1251,"ST_GRADE":"09","END_GRADE":"12","DISTRICTID":"2802190","FT_TEACHER":77,"SHELTER_ID":"NOT AVAILABLE"}},{"type":"Feature","id":14,"geometry":{"type":"Point","coordinates":[-90.229413500038405,32.250295795782883]},"properties":{"OBJECTID":14,"NCESID":"280219000415","NAME":"SYKES ELEMENTARY SCHOOL","ADDRESS":"3555 SIMPSON STREET","CITY":"JACKSON","STATE":"MS","ZIP":"39212","ZIP4":"NOT AVAILABLE","TELEPHONE":"(601) 371-4303","TYPE":"1","STATUS":"1","POPULATION":493,"COUNTY":"HINDS","COUNTYFIPS":"28049","COUNTRY":"USA","LATITUDE":32.250295796000003,"LONGITUDE":-90.229413500000007,"NAICS_CODE":"611110","NAICS_DESC":"ELEMENTARY AND SECONDARY SCHOOLS","SOURCE":"http://nces.ed.gov/GLOBALLOCATOR/sch_info_popup.asp?Type=Public&ID=280219000415","SOURCEDATE":1260403200000,"VAL_METHOD":"IMAGERY/OTHER","VAL_DATE":1273104000000,"WEBSITE":"http://nces.ed.gov/GLOBALLOCATOR/sch_info_popup.asp?Type=Public&ID=280219000415","LEVEL_":"1","ENROLLMENT":467,"ST_GRADE":"KG","END_GRADE":"05","DISTRICTID":"2802190","FT_TEACHER":26,"SHELTER_ID":"NOT AVAILABLE"}},{"type":"Feature","id":15,"geometry":{"type":"Point","coordinates":[-90.156566418703321,32.341025366126068]},"properties":{"OBJECTID":15,"NCESID":"280119001195","NAME":"MS SCHOOL FOR THE DEAF SECONDARY","ADDRESS":"1253 EASTOVER DRIVE","CITY":"JACKSON","STATE":"MS","ZIP":"39211","ZIP4":"NOT AVAILABLE","TELEPHONE":"(601) 984-8000","TYPE":"1","STATUS":"1","POPULATION":78,"COUNTY":"HINDS","COUNTYFIPS":"28049","COUNTRY":"USA","LATITUDE":32.341025366000103,"LONGITUDE":-90.156566418999901,"NAICS_CODE":"611110","NAICS_DESC":"ELEMENTARY AND SECONDARY SCHOOLS","SOURCE":"http://nces.ed.gov/GLOBALLOCATOR/sch_info_popup.asp?Type=Public&ID=280119001195","SOURCEDATE":1264723200000,"VAL_METHOD":"IMAGERY/OTHER","VAL_DATE":1273104000000,"WEBSITE":"http://nces.ed.gov/GLOBALLOCATOR/sch_info_popup.asp?Type=Public&ID=280119001195","LEVEL_":"4","ENROLLMENT":64,"ST_GRADE":"06","END_GRADE":"12","DISTRICTID":"2801190","FT_TEACHER":14,"SHELTER_ID":"NOT AVAILABLE"}},{"type":"Feature","id":16,"geometry":{"type":"Point","coordinates":[-90.222119367679255,32.243419624754559]},"properties":{"OBJECTID":16,"NCESID":"280219000397","NAME":"LEE ELEMENTARY SCHOOL","ADDRESS":"330 JUDY STREET","CITY":"JACKSON","STATE":"MS","ZIP":"39212","ZIP4":"NOT AVAILABLE","TELEPHONE":"(601) 371-4336","TYPE":"1","STATUS":"1","POPULATION":360,"COUNTY":"HINDS","COUNTYFIPS":"28049","COUNTRY":"USA","LATITUDE":32.243419625000101,"LONGITUDE":-90.222119367999895,"NAICS_CODE":"611110","NAICS_DESC":"ELEMENTARY AND SECONDARY SCHOOLS","SOURCE":"http://nces.ed.gov/GLOBALLOCATOR/sch_info_popup.asp?Type=Public&ID=280219000397","SOURCEDATE":1264723200000,"VAL_METHOD":"IMAGERY/OTHER","VAL_DATE":1273104000000,"WEBSITE":"http://nces.ed.gov/GLOBALLOCATOR/sch_info_popup.asp?Type=Public&ID=280219000397","LEVEL_":"1","ENROLLMENT":342,"ST_GRADE":"PK","END_GRADE":"05","DISTRICTID":"2802190","FT_TEACHER":18,"SHELTER_ID":"NOT AVAILABLE"}},{"type":"Feature","id":17,"geometry":{"type":"Point","coordinates":[-90.156957099613635,32.357618883804562]},"properties":{"OBJECTID":17,"NCESID":"280219000380","NAME":"CHASTAIN MIDDLE SCHOOL","ADDRESS":"4650 MANHATTAN ROAD","CITY":"JACKSON","STATE":"MS","ZIP":"39206","ZIP4":"NOT AVAILABLE","TELEPHONE":"(601) 987-3550","TYPE":"1","STATUS":"1","POPULATION":728,"COUNTY":"HINDS","COUNTYFIPS":"28049","COUNTRY":"USA","LATITUDE":32.357618883999997,"LONGITUDE":-90.1569570999999,"NAICS_CODE":"611110","NAICS_DESC":"ELEMENTARY AND SECONDARY SCHOOLS","SOURCE":"http://nces.ed.gov/GLOBALLOCATOR/sch_info_popup.asp?Type=Public&ID=280219000380","SOURCEDATE":1260403200000,"VAL_METHOD":"IMAGERY/OTHER","VAL_DATE":1273104000000,"WEBSITE":"http://nces.ed.gov/GLOBALLOCATOR/sch_info_popup.asp?Type=Public&ID=280219000380","LEVEL_":"2","ENROLLMENT":682,"ST_GRADE":"06","END_GRADE":"08","DISTRICTID":"2802190","FT_TEACHER":46,"SHELTER_ID":"NOT AVAILABLE"}},{"type":"Feature","id":18,"geometry":{"type":"Point","coordinates":[-90.264801476321168,32.334165432891524]},"properties":{"OBJECTID":18,"NCESID":"280219000410","NAME":"RAINES ELEMENTARY SCHOOL","ADDRESS":"156 FLAG CHAPEL ROAD","CITY":"JACKSON","STATE":"MS","ZIP":"39209","ZIP4":"NOT AVAILABLE","TELEPHONE":"(601) 923-2544","TYPE":"1","STATUS":"1","POPULATION":397,"COUNTY":"HINDS","COUNTYFIPS":"28049","COUNTRY":"USA","LATITUDE":32.334165433000102,"LONGITUDE":-90.264801475999903,"NAICS_CODE":"611110","NAICS_DESC":"ELEMENTARY AND SECONDARY SCHOOLS","SOURCE":"http://nces.ed.gov/GLOBALLOCATOR/sch_info_popup.asp?Type=Public&ID=280219000410","SOURCEDATE":1264723200000,"VAL_METHOD":"IMAGERY/OTHER","VAL_DATE":1294099200000,"WEBSITE":"http://nces.ed.gov/GLOBALLOCATOR/sch_info_popup.asp?Type=Public&ID=280219000410","LEVEL_":"1","ENROLLMENT":376,"ST_GRADE":"PK","END_GRADE":"05","DISTRICTID":"2802190","FT_TEACHER":21,"SHELTER_ID":"10807736"}},{"type":"Feature","id":19,"geometry":{"type":"Point","coordinates":[-90.211589935756351,32.335208112023224]},"properties":{"OBJECTID":19,"NCESID":"280219000393","NAME":"JOHNSON ELEMENTARY SCHOOL","ADDRESS":"1339 OAKPARK DRIVE","CITY":"JACKSON","STATE":"MS","ZIP":"39213","ZIP4":"NOT AVAILABLE","TELEPHONE":"(601) 987-3501","TYPE":"1","STATUS":"1","POPULATION":529,"COUNTY":"HINDS","COUNTYFIPS":"28049","COUNTRY":"USA","LATITUDE":32.335208111999997,"LONGITUDE":-90.211589935999896,"NAICS_CODE":"611110","NAICS_DESC":"ELEMENTARY AND SECONDARY SCHOOLS","SOURCE":"http://nces.ed.gov/GLOBALLOCATOR/sch_info_popup.asp?Type=Public&ID=280219000393","SOURCEDATE":1260403200000,"VAL_METHOD":"IMAGERY/OTHER","VAL_DATE":1273104000000,"WEBSITE":"http://nces.ed.gov/GLOBALLOCATOR/sch_info_popup.asp?Type=Public&ID=280219000393","LEVEL_":"1","ENROLLMENT":504,"ST_GRADE":"PK","END_GRADE":"05","DISTRICTID":"2802190","FT_TEACHER":25,"SHELTER_ID":"NOT AVAILABLE"}},{"type":"Feature","id":20,"geometry":{"type":"Point","coordinates":[-90.247534578257728,32.264368086669606]},"properties":{"OBJECTID":20,"NCESID":"280219000399","NAME":"MARSHALL ELEMENTARY SCHOOL","ADDRESS":"2909 OAK FOREST DRIVE","CITY":"JACKSON","STATE":"MS","ZIP":"39212","ZIP4":"NOT AVAILABLE","TELEPHONE":"(601) 371-4342","TYPE":"1","STATUS":"1","POPULATION":484,"COUNTY":"HINDS","COUNTYFIPS":"28049","COUNTRY":"USA","LATITUDE":32.264368087000001,"LONGITUDE":-90.2475345779999,"NAICS_CODE":"611110","NAICS_DESC":"ELEMENTARY AND SECONDARY SCHOOLS","SOURCE":"http://nces.ed.gov/GLOBALLOCATOR/sch_info_popup.asp?Type=Public&ID=280219000399","SOURCEDATE":1260403200000,"VAL_METHOD":"IMAGERY/OTHER","VAL_DATE":1294099200000,"WEBSITE":"http://nces.ed.gov/GLOBALLOCATOR/sch_info_popup.asp?Type=Public&ID=280219000399","LEVEL_":"1","ENROLLMENT":461,"ST_GRADE":"PK","END_GRADE":"05","DISTRICTID":"2802190","FT_TEACHER":23,"SHELTER_ID":"10807720"}},{"type":"Feature","id":21,"geometry":{"type":"Point","coordinates":[-90.187349783553259,32.315211368622187]},"properties":{"OBJECTID":21,"NCESID":"280219000376","NAME":"BROWN ELEMENTARY SCHOOL","ADDRESS":"146 E ASH STREET","CITY":"JACKSON","STATE":"MS","ZIP":"39202","ZIP4":"NOT AVAILABLE","TELEPHONE":"(601) 960-5326","TYPE":"1","STATUS":"1","POPULATION":223,"COUNTY":"HINDS","COUNTYFIPS":"28049","COUNTRY":"USA","LATITUDE":32.315211369000103,"LONGITUDE":-90.187349784000006,"NAICS_CODE":"611110","NAICS_DESC":"ELEMENTARY AND SECONDARY SCHOOLS","SOURCE":"http://nces.ed.gov/GLOBALLOCATOR/sch_info_popup.asp?Type=Public&ID=280219000376","SOURCEDATE":1260316800000,"VAL_METHOD":"IMAGERY/OTHER","VAL_DATE":1273104000000,"WEBSITE":"http://nces.ed.gov/GLOBALLOCATOR/sch_info_popup.asp?Type=Public&ID=280219000376","LEVEL_":"1","ENROLLMENT":209,"ST_GRADE":"PK","END_GRADE":"05","DISTRICTID":"2802190","FT_TEACHER":14,"SHELTER_ID":"NOT AVAILABLE"}},{"type":"Feature","id":22,"geometry":{"type":"Point","coordinates":[-90.20304293924012,32.353452773762797]},"properties":{"OBJECTID":22,"NCESID":"280219000407","NAME":"POWELL MIDDLE SCHOOL","ADDRESS":"3655 LIVINGSTON ROAD","CITY":"JACKSON","STATE":"MS","ZIP":"39213","ZIP4":"NOT AVAILABLE","TELEPHONE":"(601) 987-3580","TYPE":"1","STATUS":"1","POPULATION":582,"COUNTY":"HINDS","COUNTYFIPS":"28049","COUNTRY":"USA","LATITUDE":32.353452774000097,"LONGITUDE":-90.2030429389999,"NAICS_CODE":"611110","NAICS_DESC":"ELEMENTARY AND SECONDARY SCHOOLS","SOURCE":"http://nces.ed.gov/GLOBALLOCATOR/sch_info_popup.asp?Type=Public&ID=280219000407","SOURCEDATE":1260403200000,"VAL_METHOD":"IMAGERY/OTHER","VAL_DATE":1273104000000,"WEBSITE":"http://nces.ed.gov/GLOBALLOCATOR/sch_info_popup.asp?Type=Public&ID=280219000407","LEVEL_":"2","ENROLLMENT":548,"ST_GRADE":"06","END_GRADE":"08","DISTRICTID":"2802190","FT_TEACHER":34,"SHELTER_ID":"NOT AVAILABLE"}},{"type":"Feature","id":23,"geometry":{"type":"Point","coordinates":[-90.188965559000295,32.315307708281452]},"properties":{"OBJECTID":23,"NCESID":"280219000411","NAME":"ROWAN MIDDLE SCHOOL","ADDRESS":"136 E ASH STREET","CITY":"JACKSON","STATE":"MS","ZIP":"39202","ZIP4":"NOT AVAILABLE","TELEPHONE":"(601) 960-5349","TYPE":"1","STATUS":"1","POPULATION":225,"COUNTY":"HINDS","COUNTYFIPS":"28049","COUNTRY":"USA","LATITUDE":32.315307707999999,"LONGITUDE":-90.188965558999897,"NAICS_CODE":"611110","NAICS_DESC":"ELEMENTARY AND SECONDARY SCHOOLS","SOURCE":"http://nces.ed.gov/GLOBALLOCATOR/sch_info_popup.asp?Type=Public&ID=280219000411","SOURCEDATE":1260403200000,"VAL_METHOD":"IMAGERY/OTHER","VAL_DATE":1273104000000,"WEBSITE":"http://nces.ed.gov/GLOBALLOCATOR/sch_info_popup.asp?Type=Public&ID=280219000411","LEVEL_":"2","ENROLLMENT":206,"ST_GRADE":"06","END_GRADE":"08","DISTRICTID":"2802190","FT_TEACHER":19,"SHELTER_ID":"NOT AVAILABLE"}},{"type":"Feature","id":24,"geometry":{"type":"Point","coordinates":[-90.182906435883638,32.368687300107275]},"properties":{"OBJECTID":24,"NCESID":"280219000388","NAME":"GREEN ELEMENTARY SCHOOL","ADDRESS":"610 FOREST AVENUE","CITY":"JACKSON","STATE":"MS","ZIP":"39206","ZIP4":"NOT AVAILABLE","TELEPHONE":"(601) 987-3519","TYPE":"1","STATUS":"1","POPULATION":439,"COUNTY":"HINDS","COUNTYFIPS":"28049","COUNTRY":"USA","LATITUDE":32.368687299999998,"LONGITUDE":-90.182906435999897,"NAICS_CODE":"611110","NAICS_DESC":"ELEMENTARY AND SECONDARY SCHOOLS","SOURCE":"http://nces.ed.gov/GLOBALLOCATOR/sch_info_popup.asp?Type=Public&ID=280219000388","SOURCEDATE":1264723200000,"VAL_METHOD":"IMAGERY/OTHER","VAL_DATE":1273104000000,"WEBSITE":"http://nces.ed.gov/GLOBALLOCATOR/sch_info_popup.asp?Type=Public&ID=280219000388","LEVEL_":"1","ENROLLMENT":416,"ST_GRADE":"PK","END_GRADE":"05","DISTRICTID":"2802190","FT_TEACHER":23,"SHELTER_ID":"NOT AVAILABLE"}},{"type":"Feature","id":25,"geometry":{"type":"Point","coordinates":[-90.226286702587942,32.26227203566026]},"properties":{"OBJECTID":25,"NCESID":"280219000405","NAME":"PEEPLES MIDDLE SCHOOL","ADDRESS":"2940 BELVEDERE DRIVE","CITY":"JACKSON","STATE":"MS","ZIP":"39212","ZIP4":"NOT AVAILABLE","TELEPHONE":"(601) 346-5660","TYPE":"1","STATUS":"1","POPULATION":565,"COUNTY":"HINDS","COUNTYFIPS":"28049","COUNTRY":"USA","LATITUDE":32.262272036000098,"LONGITUDE":-90.226286703,"NAICS_CODE":"611110","NAICS_DESC":"ELEMENTARY AND SECONDARY SCHOOLS","SOURCE":"http://nces.ed.gov/GLOBALLOCATOR/sch_info_popup.asp?Type=Public&ID=280219000405","SOURCEDATE":1260403200000,"VAL_METHOD":"IMAGERY/OTHER","VAL_DATE":1273104000000,"WEBSITE":"http://nces.ed.gov/GLOBALLOCATOR/sch_info_popup.asp?Type=Public&ID=280219000405","LEVEL_":"2","ENROLLMENT":531,"ST_GRADE":"06","END_GRADE":"08","DISTRICTID":"2802190","FT_TEACHER":34,"SHELTER_ID":"NOT AVAILABLE"}},{"type":"Feature","id":26,"geometry":{"type":"Point","coordinates":[-90.215647615114932,32.260020900148426]},"properties":{"OBJECTID":26,"NCESID":"280219000370","NAME":"BAKER ELEMENTARY SCHOOL","ADDRESS":"300 EAST SANTA CLAIR STREET","CITY":"JACKSON","STATE":"MS","ZIP":"39212","ZIP4":"3044","TELEPHONE":"(601) 371-4327","TYPE":"1","STATUS":"1","POPULATION":403,"COUNTY":"HINDS","COUNTYFIPS":"28049","COUNTRY":"USA","LATITUDE":32.260020900000001,"LONGITUDE":-90.215647614999995,"NAICS_CODE":"611110","NAICS_DESC":"ELEMENTARY AND SECONDARY SCHOOLS","SOURCE":"http://nces.ed.gov/GLOBALLOCATOR/sch_info_popup.asp?Type=Public&ID=280219000370","SOURCEDATE":1260316800000,"VAL_METHOD":"IMAGERY","VAL_DATE":1369699200000,"WEBSITE":"http://nces.ed.gov/GLOBALLOCATOR/sch_info_popup.asp?Type=Public&ID=280219000370","LEVEL_":"1","ENROLLMENT":384,"ST_GRADE":"PK","END_GRADE":"05","DISTRICTID":"2802190","FT_TEACHER":19,"SHELTER_ID":"NOT AVAILABLE"}},{"type":"Feature","id":27,"geometry":{"type":"Point","coordinates":[-90.263678601978953,32.270938649222906]},"properties":{"OBJECTID":27,"NCESID":"280219000424","NAME":"WOODVILLE HEIGHTS ELEMENTARY SCHOOL","ADDRESS":"2930 MCDOWELL ROAD EXTENSION","CITY":"JACKSON","STATE":"MS","ZIP":"39204","ZIP4":"NOT AVAILABLE","TELEPHONE":"(601) 371-4300","TYPE":"1","STATUS":"1","POPULATION":456,"COUNTY":"HINDS","COUNTYFIPS":"28049","COUNTRY":"USA","LATITUDE":32.270938649000101,"LONGITUDE":-90.263678601999999,"NAICS_CODE":"611110","NAICS_DESC":"ELEMENTARY AND SECONDARY SCHOOLS","SOURCE":"http://nces.ed.gov/GLOBALLOCATOR/sch_info_popup.asp?Type=Public&ID=280219000424","SOURCEDATE":1260403200000,"VAL_METHOD":"IMAGERY/OTHER","VAL_DATE":1294099200000,"WEBSITE":"http://nces.ed.gov/GLOBALLOCATOR/sch_info_popup.asp?Type=Public&ID=280219000424","LEVEL_":"1","ENROLLMENT":435,"ST_GRADE":"KG","END_GRADE":"05","DISTRICTID":"2802190","FT_TEACHER":21,"SHELTER_ID":"10807739"}},{"type":"Feature","id":28,"geometry":{"type":"Point","coordinates":[-90.192261973647774,32.343398633147181]},"properties":{"OBJECTID":28,"NCESID":"280219000418","NAME":"WALTON ELEMENTARY SCHOOL","ADDRESS":"3200 BAILEY AVENUE EXTENSION","CITY":"JACKSON","STATE":"MS","ZIP":"39213","ZIP4":"NOT AVAILABLE","TELEPHONE":"(601) 987-3591","TYPE":"1","STATUS":"1","POPULATION":474,"COUNTY":"HINDS","COUNTYFIPS":"28049","COUNTRY":"USA","LATITUDE":32.343398633,"LONGITUDE":-90.192261974000004,"NAICS_CODE":"611110","NAICS_DESC":"ELEMENTARY AND SECONDARY SCHOOLS","SOURCE":"http://nces.ed.gov/GLOBALLOCATOR/sch_info_popup.asp?Type=Public&ID=280219000418","SOURCEDATE":1260403200000,"VAL_METHOD":"IMAGERY/OTHER","VAL_DATE":1273104000000,"WEBSITE":"http://nces.ed.gov/GLOBALLOCATOR/sch_info_popup.asp?Type=Public&ID=280219000418","LEVEL_":"1","ENROLLMENT":451,"ST_GRADE":"PK","END_GRADE":"05","DISTRICTID":"2802190","FT_TEACHER":23,"SHELTER_ID":"NOT AVAILABLE"}},{"type":"Feature","id":29,"geometry":{"type":"Point","coordinates":[-90.226604098039061,32.268033674756012]},"properties":{"OBJECTID":29,"NCESID":"280219000394","NAME":"KEY ELEMENTARY SCHOOL","ADDRESS":"699 W. MCDOWELL ROAD","CITY":"JACKSON","STATE":"MS","ZIP":"39204","ZIP4":"NOT AVAILABLE","TELEPHONE":"(601) 371-4333","TYPE":"1","STATUS":"1","POPULATION":436,"COUNTY":"HINDS","COUNTYFIPS":"28049","COUNTRY":"USA","LATITUDE":32.268033674999998,"LONGITUDE":-90.226604097999896,"NAICS_CODE":"611110","NAICS_DESC":"ELEMENTARY AND SECONDARY SCHOOLS","SOURCE":"http://nces.ed.gov/GLOBALLOCATOR/sch_info_popup.asp?Type=Public&ID=280219000394","SOURCEDATE":1255392000000,"VAL_METHOD":"IMAGERY","VAL_DATE":1369699200000,"WEBSITE":"http://nces.ed.gov/GLOBALLOCATOR/sch_info_popup.asp?Type=Public&ID=280219000394","LEVEL_":"1","ENROLLMENT":415,"ST_GRADE":"PK","END_GRADE":"05","DISTRICTID":"2802190","FT_TEACHER":21,"SHELTER_ID":"10807716"}},{"type":"Feature","id":30,"geometry":{"type":"Point","coordinates":[-90.171306145666719,32.380523698333427]},"properties":{"OBJECTID":30,"NCESID":"280219001365","NAME":"KIRKSEY MIDDLE SCHOOL","ADDRESS":"651 JAMES M. DAVIS DRIVE","CITY":"JACKSON","STATE":"MS","ZIP":"39206","ZIP4":"NOT AVAILABLE","TELEPHONE":"(601) 987-8367","TYPE":"1","STATUS":"1","POPULATION":318,"COUNTY":"HINDS","COUNTYFIPS":"28049","COUNTRY":"USA","LATITUDE":32.380523697999998,"LONGITUDE":-90.171306145999907,"NAICS_CODE":"611110","NAICS_DESC":"ELEMENTARY AND SECONDARY SCHOOLS","SOURCE":"http://nces.ed.gov/GLOBALLOCATOR/sch_info_popup.asp?Type=Public&ID=280219001365","SOURCEDATE":1351814400000,"VAL_METHOD":"IMAGERY/OTHER","VAL_DATE":1354147200000,"WEBSITE":"http://nces.ed.gov/GLOBALLOCATOR/sch_info_popup.asp?Type=Public&ID=280219001365","LEVEL_":"2","ENROLLMENT":298,"ST_GRADE":"06","END_GRADE":"08","DISTRICTID":"2802190","FT_TEACHER":20,"SHELTER_ID":"NOT AVAILABLE"}},{"type":"Feature","id":31,"geometry":{"type":"Point","coordinates":[-90.218162269988085,32.291848314148439]},"properties":{"OBJECTID":31,"NCESID":"280219000391","NAME":"ISABLE ELEMENTARY SCHOOL","ADDRESS":"1716 ISABLE STREET","CITY":"JACKSON","STATE":"MS","ZIP":"39204","ZIP4":"NOT AVAILABLE","TELEPHONE":"(601) 960-5310","TYPE":"1","STATUS":"1","POPULATION":418,"COUNTY":"HINDS","COUNTYFIPS":"28049","COUNTRY":"USA","LATITUDE":32.291848313999999,"LONGITUDE":-90.218162269999894,"NAICS_CODE":"611110","NAICS_DESC":"ELEMENTARY AND SECONDARY SCHOOLS","SOURCE":"http://nces.ed.gov/GLOBALLOCATOR/sch_info_popup.asp?Type=Public&ID=280219000391","SOURCEDATE":1264723200000,"VAL_METHOD":"IMAGERY/OTHER","VAL_DATE":1273104000000,"WEBSITE":"http://nces.ed.gov/GLOBALLOCATOR/sch_info_popup.asp?Type=Public&ID=280219000391","LEVEL_":"1","ENROLLMENT":399,"ST_GRADE":"PK","END_GRADE":"05","DISTRICTID":"2802190","FT_TEACHER":19,"SHELTER_ID":"NOT AVAILABLE"}},{"type":"Feature","id":32,"geometry":{"type":"Point","coordinates":[-90.17079450031521,32.324169644826846]},"properties":{"OBJECTID":32,"NCESID":"280219000408","NAME":"POWER APAC SCHOOL","ADDRESS":"1120 RIVERSIDE DRIVE","CITY":"JACKSON","STATE":"MS","ZIP":"39202","ZIP4":"NOT AVAILABLE","TELEPHONE":"(601) 960-5387","TYPE":"1","STATUS":"1","POPULATION":162,"COUNTY":"HINDS","COUNTYFIPS":"28049","COUNTRY":"USA","LATITUDE":32.324169644999998,"LONGITUDE":-90.1707944999999,"NAICS_CODE":"611110","NAICS_DESC":"ELEMENTARY AND SECONDARY SCHOOLS","SOURCE":"http://nces.ed.gov/GLOBALLOCATOR/sch_info_popup.asp?Type=Public&ID=280219000408","SOURCEDATE":1260403200000,"VAL_METHOD":"IMAGERY/OTHER","VAL_DATE":1273104000000,"WEBSITE":"http://nces.ed.gov/GLOBALLOCATOR/sch_info_popup.asp?Type=Public&ID=280219000408","LEVEL_":"4","ENROLLMENT":145,"ST_GRADE":"04","END_GRADE":"12","DISTRICTID":"2802190","FT_TEACHER":17,"SHELTER_ID":"NOT AVAILABLE"}},{"type":"Feature","id":33,"geometry":{"type":"Point","coordinates":[-90.239450453064677,32.280638648316142]},"properties":{"OBJECTID":33,"NCESID":"280219000422","NAME":"WILKINS ELEMENTARY SCHOOL","ADDRESS":"1970 CASTLE HILL DRIVE","CITY":"JACKSON","STATE":"MS","ZIP":"39204","ZIP4":"NOT AVAILABLE","TELEPHONE":"(601) 371-4306","TYPE":"1","STATUS":"1","POPULATION":618,"COUNTY":"HINDS","COUNTYFIPS":"28049","COUNTRY":"USA","LATITUDE":32.280638648,"LONGITUDE":-90.239450453000003,"NAICS_CODE":"611110","NAICS_DESC":"ELEMENTARY AND SECONDARY SCHOOLS","SOURCE":"http://nces.ed.gov/GLOBALLOCATOR/sch_info_popup.asp?Type=Public&ID=280219000422","SOURCEDATE":1264723200000,"VAL_METHOD":"IMAGERY/OTHER","VAL_DATE":1294099200000,"WEBSITE":"http://nces.ed.gov/GLOBALLOCATOR/sch_info_popup.asp?Type=Public&ID=280219000422","LEVEL_":"1","ENROLLMENT":590,"ST_GRADE":"PK","END_GRADE":"05","DISTRICTID":"2802190","FT_TEACHER":28,"SHELTER_ID":"10774262"}},{"type":"Feature","id":34,"geometry":{"type":"Point","coordinates":[-90.180924073240519,32.308040472760496]},"properties":{"OBJECTID":34,"NCESID":"280219001052","NAME":"DAVIS MAGNET SCHOOL","ADDRESS":"750 N CONGRESS STREET","CITY":"JACKSON","STATE":"MS","ZIP":"39202","ZIP4":"NOT AVAILABLE","TELEPHONE":"(601) 960-5333","TYPE":"1","STATUS":"1","POPULATION":304,"COUNTY":"HINDS","COUNTYFIPS":"28049","COUNTRY":"USA","LATITUDE":32.308040473000098,"LONGITUDE":-90.180924073,"NAICS_CODE":"611110","NAICS_DESC":"ELEMENTARY AND SECONDARY SCHOOLS","SOURCE":"http://nces.ed.gov/GLOBALLOCATOR/sch_info_popup.asp?Type=Public&ID=280219001052","SOURCEDATE":1260316800000,"VAL_METHOD":"IMAGERY/OTHER","VAL_DATE":1273104000000,"WEBSITE":"http://nces.ed.gov/GLOBALLOCATOR/sch_info_popup.asp?Type=Public&ID=280219001052","LEVEL_":"1","ENROLLMENT":288,"ST_GRADE":"KG","END_GRADE":"05","DISTRICTID":"2802190","FT_TEACHER":16,"SHELTER_ID":"NOT AVAILABLE"}},{"type":"Feature","id":35,"geometry":{"type":"Point","coordinates":[-90.155846674124632,32.343903949059566]},"properties":{"OBJECTID":35,"NCESID":"280119001284","NAME":"MS SCHOOL FOR THE DEAF ELEMENTARY","ADDRESS":"1253 EASTOVER DRIVE","CITY":"JACKSON","STATE":"MS","ZIP":"39211","ZIP4":"NOT AVAILABLE","TELEPHONE":"(601) 984-8000","TYPE":"1","STATUS":"1","POPULATION":45,"COUNTY":"HINDS","COUNTYFIPS":"28049","COUNTRY":"USA","LATITUDE":32.343903949000001,"LONGITUDE":-90.155846674000003,"NAICS_CODE":"611110","NAICS_DESC":"ELEMENTARY AND SECONDARY SCHOOLS","SOURCE":"http://nces.ed.gov/GLOBALLOCATOR/sch_info_popup.asp?Type=Public&ID=280119001284","SOURCEDATE":1260403200000,"VAL_METHOD":"IMAGERY/OTHER","VAL_DATE":1273104000000,"WEBSITE":"http://nces.ed.gov/GLOBALLOCATOR/sch_info_popup.asp?Type=Public&ID=280119001284","LEVEL_":"1","ENROLLMENT":33,"ST_GRADE":"PK","END_GRADE":"06","DISTRICTID":"2801190","FT_TEACHER":12,"SHELTER_ID":"NOT AVAILABLE"}},{"type":"Feature","id":36,"geometry":{"type":"Point","coordinates":[-90.165917133412677,32.35513229833137]},"properties":{"OBJECTID":36,"NCESID":"280219000373","NAME":"BOYD ELEMENTARY SCHOOL","ADDRESS":"4531 BROADMEADOW DRIVE","CITY":"JACKSON","STATE":"MS","ZIP":"39206","ZIP4":"NOT AVAILABLE","TELEPHONE":"(601) 987-3504","TYPE":"1","STATUS":"1","POPULATION":656,"COUNTY":"HINDS","COUNTYFIPS":"28049","COUNTRY":"USA","LATITUDE":32.3551322980001,"LONGITUDE":-90.165917132999894,"NAICS_CODE":"611110","NAICS_DESC":"ELEMENTARY AND SECONDARY SCHOOLS","SOURCE":"http://nces.ed.gov/GLOBALLOCATOR/sch_info_popup.asp?Type=Public&ID=280219000373","SOURCEDATE":1260316800000,"VAL_METHOD":"IMAGERY","VAL_DATE":1369699200000,"WEBSITE":"http://nces.ed.gov/GLOBALLOCATOR/sch_info_popup.asp?Type=Public&ID=280219000373","LEVEL_":"1","ENROLLMENT":622,"ST_GRADE":"01","END_GRADE":"05","DISTRICTID":"2802190","FT_TEACHER":34,"SHELTER_ID":"NOT AVAILABLE"}},{"type":"Feature","id":37,"geometry":{"type":"Point","coordinates":[-90.207055736970474,32.346214889084116]},"properties":{"OBJECTID":37,"NCESID":"280219000413","NAME":"SMITH ELEMENTARY SCHOOL","ADDRESS":"3900 PARKWAY DRIVE","CITY":"JACKSON","STATE":"MS","ZIP":"39213","ZIP4":"NOT AVAILABLE","TELEPHONE":"(601) 987-3525","TYPE":"1","STATUS":"1","POPULATION":446,"COUNTY":"HINDS","COUNTYFIPS":"28049","COUNTRY":"USA","LATITUDE":32.346214889000102,"LONGITUDE":-90.207055737000005,"NAICS_CODE":"611110","NAICS_DESC":"ELEMENTARY AND SECONDARY SCHOOLS","SOURCE":"http://nces.ed.gov/GLOBALLOCATOR/sch_info_popup.asp?Type=Public&ID=280219000413","SOURCEDATE":1255392000000,"VAL_METHOD":"IMAGERY/OTHER","VAL_DATE":1294099200000,"WEBSITE":"http://nces.ed.gov/GLOBALLOCATOR/sch_info_popup.asp?Type=Public&ID=280219000413","LEVEL_":"1","ENROLLMENT":424,"ST_GRADE":"PK","END_GRADE":"05","DISTRICTID":"2802190","FT_TEACHER":22,"SHELTER_ID":"10807325"}},{"type":"Feature","id":38,"geometry":{"type":"Point","coordinates":[-90.241996459141248,32.280764057098125]},"properties":{"OBJECTID":38,"NCESID":"280219000423","NAME":"WINGFIELD HIGH SCHOOL","ADDRESS":"1985 SCANLON DRIVE","CITY":"JACKSON","STATE":"MS","ZIP":"39204","ZIP4":"NOT AVAILABLE","TELEPHONE":"(601) 371-4350","TYPE":"1","STATUS":"1","POPULATION":879,"COUNTY":"HINDS","COUNTYFIPS":"28049","COUNTRY":"USA","LATITUDE":32.280764057000098,"LONGITUDE":-90.241996458999907,"NAICS_CODE":"611110","NAICS_DESC":"ELEMENTARY AND SECONDARY SCHOOLS","SOURCE":"http://nces.ed.gov/GLOBALLOCATOR/sch_info_popup.asp?Type=Public&ID=280219000423","SOURCEDATE":1260403200000,"VAL_METHOD":"IMAGERY/OTHER","VAL_DATE":1273104000000,"WEBSITE":"http://nces.ed.gov/GLOBALLOCATOR/sch_info_popup.asp?Type=Public&ID=280219000423","LEVEL_":"3","ENROLLMENT":821,"ST_GRADE":"09","END_GRADE":"12","DISTRICTID":"2802190","FT_TEACHER":58,"SHELTER_ID":"NOT AVAILABLE"}},{"type":"Feature","id":39,"geometry":{"type":"Point","coordinates":[-90.224047924830117,32.306131897859458]},"properties":{"OBJECTID":39,"NCESID":"280219000409","NAME":"PROVINE HIGH SCHOOL","ADDRESS":"2400 ROBINSON ROAD","CITY":"JACKSON","STATE":"MS","ZIP":"39209","ZIP4":"NOT AVAILABLE","TELEPHONE":"(601) 960-5393","TYPE":"1","STATUS":"1","POPULATION":1161,"COUNTY":"HINDS","COUNTYFIPS":"28049","COUNTRY":"USA","LATITUDE":32.306131897999997,"LONGITUDE":-90.224047924999994,"NAICS_CODE":"611110","NAICS_DESC":"ELEMENTARY AND SECONDARY SCHOOLS","SOURCE":"http://nces.ed.gov/GLOBALLOCATOR/sch_info_popup.asp?Type=Public&ID=280219000409","SOURCEDATE":1260403200000,"VAL_METHOD":"IMAGERY/OTHER","VAL_DATE":1273104000000,"WEBSITE":"http://nces.ed.gov/GLOBALLOCATOR/sch_info_popup.asp?Type=Public&ID=280219000409","LEVEL_":"3","ENROLLMENT":1090,"ST_GRADE":"09","END_GRADE":"12","DISTRICTID":"2802190","FT_TEACHER":71,"SHELTER_ID":"NOT AVAILABLE"}},{"type":"Feature","id":40,"geometry":{"type":"Point","coordinates":[-90.208587468734464,32.311858756930199]},"properties":{"OBJECTID":40,"NCESID":"280219000371","NAME":"BARR ELEMENTARY SCHOOL","ADDRESS":"1593 W CAPITOL STREET","CITY":"JACKSON","STATE":"MS","ZIP":"39203","ZIP4":"NOT AVAILABLE","TELEPHONE":"(601) 960-5336","TYPE":"1","STATUS":"1","POPULATION":161,"COUNTY":"HINDS","COUNTYFIPS":"28049","COUNTRY":"USA","LATITUDE":32.311858757000003,"LONGITUDE":-90.208587468999994,"NAICS_CODE":"611110","NAICS_DESC":"ELEMENTARY AND SECONDARY SCHOOLS","SOURCE":"http://nces.ed.gov/GLOBALLOCATOR/sch_info_popup.asp?Type=Public&ID=280219000371","SOURCEDATE":1260316800000,"VAL_METHOD":"IMAGERY","VAL_DATE":1369699200000,"WEBSITE":"http://nces.ed.gov/GLOBALLOCATOR/sch_info_popup.asp?Type=Public&ID=280219000371","LEVEL_":"1","ENROLLMENT":151,"ST_GRADE":"PK","END_GRADE":"05","DISTRICTID":"2802190","FT_TEACHER":10,"SHELTER_ID":"NOT AVAILABLE"}},{"type":"Feature","id":41,"geometry":{"type":"Point","coordinates":[-90.275073018095682,32.278616267830373]},"properties":{"OBJECTID":41,"NCESID":"280219001370","NAME":"CARDOZO MIDDLE SCHOOL","ADDRESS":"3180 MCDOWELL RD EXT","CITY":"JACKSON","STATE":"MS","ZIP":"39212","ZIP4":"NOT AVAILABLE","TELEPHONE":"(601) 346-5635","TYPE":"1","STATUS":"1","POPULATION":626,"COUNTY":"HINDS","COUNTYFIPS":"28049","COUNTRY":"USA","LATITUDE":32.2786162680001,"LONGITUDE":-90.275073017999901,"NAICS_CODE":"611110","NAICS_DESC":"ELEMENTARY AND SECONDARY SCHOOLS","SOURCE":"http://nces.ed.gov/GLOBALLOCATOR/sch_info_popup.asp?Type=Public&ID=280219001370","SOURCEDATE":1351814400000,"VAL_METHOD":"GEOCODE","VAL_DATE":1354147200000,"WEBSITE":"http://nces.ed.gov/GLOBALLOCATOR/sch_info_popup.asp?Type=Public&ID=280219001370","LEVEL_":"2","ENROLLMENT":591,"ST_GRADE":"06","END_GRADE":"08","DISTRICTID":"2802190","FT_TEACHER":35,"SHELTER_ID":"NOT AVAILABLE"}},{"type":"Feature","id":42,"geometry":{"type":"Point","coordinates":[-90.308657744124844,32.270477070274005]},"properties":{"OBJECTID":42,"NCESID":"280219000416","NAME":"TIMBERLAWN ELEMENTARY SCHOOL","ADDRESS":"1980 N SIWELL ROAD","CITY":"JACKSON","STATE":"MS","ZIP":"39209","ZIP4":"NOT AVAILABLE","TELEPHONE":"(601) 923-2556","TYPE":"1","STATUS":"1","POPULATION":567,"COUNTY":"HINDS","COUNTYFIPS":"28049","COUNTRY":"USA","LATITUDE":32.270477069999998,"LONGITUDE":-90.308657744000001,"NAICS_CODE":"611110","NAICS_DESC":"ELEMENTARY AND SECONDARY SCHOOLS","SOURCE":"http://nces.ed.gov/GLOBALLOCATOR/sch_info_popup.asp?Type=Public&ID=280219000416","SOURCEDATE":1260403200000,"VAL_METHOD":"IMAGERY/OTHER","VAL_DATE":1294099200000,"WEBSITE":"http://nces.ed.gov/GLOBALLOCATOR/sch_info_popup.asp?Type=Public&ID=280219000416","LEVEL_":"1","ENROLLMENT":541,"ST_GRADE":"PK","END_GRADE":"05","DISTRICTID":"2802190","FT_TEACHER":26,"SHELTER_ID":"10807738"}},{"type":"Feature","id":43,"geometry":{"type":"Point","coordinates":[-90.171423800714422,32.384835155929927]},"properties":{"OBJECTID":43,"NCESID":"280219000377","NAME":"CALLAWAY HIGH SCHOOL","ADDRESS":"601 BEASLEY ROAD","CITY":"JACKSON","STATE":"MS","ZIP":"39206","ZIP4":"NOT AVAILABLE","TELEPHONE":"(601) 987-3535","TYPE":"1","STATUS":"1","POPULATION":1192,"COUNTY":"HINDS","COUNTYFIPS":"28049","COUNTRY":"USA","LATITUDE":32.384835156000101,"LONGITUDE":-90.171423800999904,"NAICS_CODE":"611110","NAICS_DESC":"ELEMENTARY AND SECONDARY SCHOOLS","SOURCE":"http://nces.ed.gov/GLOBALLOCATOR/sch_info_popup.asp?Type=Public&ID=280219000377","SOURCEDATE":1264723200000,"VAL_METHOD":"IMAGERY/OTHER","VAL_DATE":1273104000000,"WEBSITE":"http://nces.ed.gov/GLOBALLOCATOR/sch_info_popup.asp?Type=Public&ID=280219000377","LEVEL_":"3","ENROLLMENT":1123,"ST_GRADE":"09","END_GRADE":"12","DISTRICTID":"2802190","FT_TEACHER":69,"SHELTER_ID":"NOT AVAILABLE"}},{"type":"Feature","id":44,"geometry":{"type":"Point","coordinates":[-90.255265147216207,32.380635439315846]},"properties":{"OBJECTID":44,"NCESID":"280219001155","NAME":"NORTHWEST MIDDLE SCHOOL","ADDRESS":"7020 HIGHWAY 49 N","CITY":"JACKSON","STATE":"MS","ZIP":"39213","ZIP4":"NOT AVAILABLE","TELEPHONE":"(601) 987-3609","TYPE":"1","STATUS":"1","POPULATION":382,"COUNTY":"HINDS","COUNTYFIPS":"28049","COUNTRY":"USA","LATITUDE":32.380635439000102,"LONGITUDE":-90.255265147000003,"NAICS_CODE":"611110","NAICS_DESC":"ELEMENTARY AND SECONDARY SCHOOLS","SOURCE":"http://nces.ed.gov/GLOBALLOCATOR/sch_info_popup.asp?Type=Public&ID=280219001155","SOURCEDATE":1264723200000,"VAL_METHOD":"IMAGERY/OTHER","VAL_DATE":1273104000000,"WEBSITE":"http://nces.ed.gov/GLOBALLOCATOR/sch_info_popup.asp?Type=Public&ID=280219001155","LEVEL_":"2","ENROLLMENT":352,"ST_GRADE":"06","END_GRADE":"08","DISTRICTID":"2802190","FT_TEACHER":30,"SHELTER_ID":"NOT AVAILABLE"}},{"type":"Feature","id":45,"geometry":{"type":"Point","coordinates":[-90.197905487604956,32.348988964168491]},"properties":{"OBJECTID":45,"NCESID":"280219000402","NAME":"MORRISON ACADEMIC ADVANCEMENT CTR","ADDRESS":"1224 EMINENCE ROW","CITY":"JACKSON","STATE":"MS","ZIP":"39213","ZIP4":"NOT AVAILABLE","TELEPHONE":"(601) 987-3522","TYPE":"4","STATUS":"1","POPULATION":1,"COUNTY":"HINDS","COUNTYFIPS":"28049","COUNTRY":"USA","LATITUDE":32.3489889640001,"LONGITUDE":-90.197905487999904,"NAICS_CODE":"611110","NAICS_DESC":"ELEMENTARY AND SECONDARY SCHOOLS","SOURCE":"http://nces.ed.gov/GLOBALLOCATOR/sch_info_popup.asp?Type=Public&ID=280219000402","SOURCEDATE":1264723200000,"VAL_METHOD":"IMAGERY/OTHER","VAL_DATE":1273104000000,"WEBSITE":"http://nces.ed.gov/GLOBALLOCATOR/sch_info_popup.asp?Type=Public&ID=280219000402","LEVEL_":"2","ENROLLMENT":0,"ST_GRADE":"06","END_GRADE":"07","DISTRICTID":"2802190","FT_TEACHER":1,"SHELTER_ID":"NOT AVAILABLE"}},{"type":"Feature","id":46,"geometry":{"type":"Point","coordinates":[-90.140710076858568,32.34300490382379]},"properties":{"OBJECTID":46,"NCESID":"280219000379","NAME":"CASEY ELEMENTARY SCHOOL","ADDRESS":"2101 LAKE CIRCLE","CITY":"JACKSON","STATE":"MS","ZIP":"39211","ZIP4":"NOT AVAILABLE","TELEPHONE":"(601) 987-3510","TYPE":"1","STATUS":"1","POPULATION":375,"COUNTY":"HINDS","COUNTYFIPS":"28049","COUNTRY":"USA","LATITUDE":32.343004904000097,"LONGITUDE":-90.140710076999895,"NAICS_CODE":"611110","NAICS_DESC":"ELEMENTARY AND SECONDARY SCHOOLS","SOURCE":"http://nces.ed.gov/GLOBALLOCATOR/sch_info_popup.asp?Type=Public&ID=280219000379","SOURCEDATE":1260316800000,"VAL_METHOD":"IMAGERY","VAL_DATE":1369699200000,"WEBSITE":"http://nces.ed.gov/GLOBALLOCATOR/sch_info_popup.asp?Type=Public&ID=280219000379","LEVEL_":"1","ENROLLMENT":354,"ST_GRADE":"KG","END_GRADE":"05","DISTRICTID":"2802190","FT_TEACHER":21,"SHELTER_ID":"NOT AVAILABLE"}},{"type":"Feature","id":47,"geometry":{"type":"Point","coordinates":[-90.140616198419806,32.358309714852794]},"properties":{"OBJECTID":47,"NCESID":"280219000414","NAME":"SPANN ELEMENTARY SCHOOL","ADDRESS":"1615 BRECON DRIVE","CITY":"JACKSON","STATE":"MS","ZIP":"39211","ZIP4":"NOT AVAILABLE","TELEPHONE":"(601) 987-3532","TYPE":"1","STATUS":"1","POPULATION":500,"COUNTY":"HINDS","COUNTYFIPS":"28049","COUNTRY":"USA","LATITUDE":32.358309715000097,"LONGITUDE":-90.140616198000004,"NAICS_CODE":"611110","NAICS_DESC":"ELEMENTARY AND SECONDARY SCHOOLS","SOURCE":"http://nces.ed.gov/GLOBALLOCATOR/sch_info_popup.asp?Type=Public&ID=280219000414","SOURCEDATE":1264723200000,"VAL_METHOD":"IMAGERY/OTHER","VAL_DATE":1294099200000,"WEBSITE":"http://nces.ed.gov/GLOBALLOCATOR/sch_info_popup.asp?Type=Public&ID=280219000414","LEVEL_":"1","ENROLLMENT":475,"ST_GRADE":"KG","END_GRADE":"05","DISTRICTID":"2802190","FT_TEACHER":25,"SHELTER_ID":"10807737"}},{"type":"Feature","id":48,"geometry":{"type":"Point","coordinates":[-90.193766030114489,32.289094093266336]},"properties":{"OBJECTID":48,"NCESID":"280219001169","NAME":"GEORGE ELEMENTARY SCHOOL","ADDRESS":"1020 HUNTER STREET","CITY":"JACKSON","STATE":"MS","ZIP":"39204","ZIP4":"NOT AVAILABLE","TELEPHONE":"(601) 960-5339","TYPE":"1","STATUS":"1","POPULATION":181,"COUNTY":"HINDS","COUNTYFIPS":"28049","COUNTRY":"USA","LATITUDE":32.289094093000102,"LONGITUDE":-90.193766029999907,"NAICS_CODE":"611110","NAICS_DESC":"ELEMENTARY AND SECONDARY SCHOOLS","SOURCE":"http://nces.ed.gov/GLOBALLOCATOR/sch_info_popup.asp?Type=Public&ID=280219001169","SOURCEDATE":1260316800000,"VAL_METHOD":"IMAGERY","VAL_DATE":1369699200000,"WEBSITE":"http://nces.ed.gov/GLOBALLOCATOR/sch_info_popup.asp?Type=Public&ID=280219001169","LEVEL_":"1","ENROLLMENT":170,"ST_GRADE":"PK","END_GRADE":"05","DISTRICTID":"2802190","FT_TEACHER":11,"SHELTER_ID":"NOT AVAILABLE"}},{"type":"Feature","id":49,"geometry":{"type":"Point","coordinates":[-90.153502228438256,32.36202860120801]},"properties":{"OBJECTID":49,"NCESID":"280219001242","NAME":"MCWILLIE ELEMENTARY SCHOOL","ADDRESS":"4851 MCWILLIE CIRCLE","CITY":"JACKSON","STATE":"MS","ZIP":"39206","ZIP4":"NOT AVAILABLE","TELEPHONE":"(601) 987-3709","TYPE":"1","STATUS":"1","POPULATION":407,"COUNTY":"HINDS","COUNTYFIPS":"28049","COUNTRY":"USA","LATITUDE":32.362028601000098,"LONGITUDE":-90.153502227999994,"NAICS_CODE":"611110","NAICS_DESC":"ELEMENTARY AND SECONDARY SCHOOLS","SOURCE":"http://nces.ed.gov/GLOBALLOCATOR/sch_info_popup.asp?Type=Public&ID=280219001242","SOURCEDATE":1255392000000,"VAL_METHOD":"IMAGERY","VAL_DATE":1369699200000,"WEBSITE":"http://nces.ed.gov/GLOBALLOCATOR/sch_info_popup.asp?Type=Public&ID=280219001242","LEVEL_":"1","ENROLLMENT":384,"ST_GRADE":"PK","END_GRADE":"06","DISTRICTID":"2802190","FT_TEACHER":23,"SHELTER_ID":"NOT AVAILABLE"}},{"type":"Feature","id":50,"geometry":{"type":"Point","coordinates":[-90.175091563628996,32.324440544637568]},"properties":{"OBJECTID":50,"NCESID":"280219001385","NAME":"BAILEY MIDDLE APAC SCHOOL","ADDRESS":"1900 N STATE STREET","CITY":"JACKSON","STATE":"MS","ZIP":"39202","ZIP4":"NOT AVAILABLE","TELEPHONE":"(601) 960-5343","TYPE":"1","STATUS":"1","POPULATION":599,"COUNTY":"HINDS","COUNTYFIPS":"28049","COUNTRY":"USA","LATITUDE":32.324440545000101,"LONGITUDE":-90.175091563999999,"NAICS_CODE":"611110","NAICS_DESC":"ELEMENTARY AND SECONDARY SCHOOLS","SOURCE":"http://nces.ed.gov/GLOBALLOCATOR/sch_info_popup.asp?Type=Public&ID=280219001385","SOURCEDATE":1431043200000,"VAL_METHOD":"IMAGERY/OTHER","VAL_DATE":1433980800000,"WEBSITE":"http://nces.ed.gov/GLOBALLOCATOR/sch_info_popup.asp?Type=Public&ID=280219001385","LEVEL_":"2","ENROLLMENT":565,"ST_GRADE":"06","END_GRADE":"08","DISTRICTID":"2802190","FT_TEACHER":34,"SHELTER_ID":"10774781"}},{"type":"Feature","id":51,"geometry":{"type":"Point","coordinates":[-90.183937788068064,32.291070885001055]},"properties":{"OBJECTID":51,"NCESID":"280219000947","NAME":"YOUTH COURT SCHOOL","ADDRESS":"400 E SILAS BROWN","CITY":"JACKSON","STATE":"MS","ZIP":"39225","ZIP4":"2868","TELEPHONE":"(601) 960-1700","TYPE":"4","STATUS":"1","POPULATION":1,"COUNTY":"HINDS","COUNTYFIPS":"28049","COUNTRY":"USA","LATITUDE":32.291070885000103,"LONGITUDE":-90.183937787999994,"NAICS_CODE":"611110","NAICS_DESC":"ELEMENTARY AND SECONDARY SCHOOLS","SOURCE":"http://nces.ed.gov/GLOBALLOCATOR/sch_info_popup.asp?Type=Public&ID=280219000947","SOURCEDATE":1264723200000,"VAL_METHOD":"IMAGERY/OTHER","VAL_DATE":1273104000000,"WEBSITE":"http://nces.ed.gov/GLOBALLOCATOR/sch_info_popup.asp?Type=Public&ID=280219000947","LEVEL_":"4","ENROLLMENT":0,"ST_GRADE":"01","END_GRADE":"12","DISTRICTID":"2802190","FT_TEACHER":1,"SHELTER_ID":"NOT AVAILABLE"}},{"type":"Feature","id":52,"geometry":{"type":"Point","coordinates":[-90.240772133562416,32.300538107674576]},"properties":{"OBJECTID":52,"NCESID":"280219000381","NAME":"CLAUSELL ELEMENTARY SCHOOL","ADDRESS":"3330 HARLEY STREET","CITY":"JACKSON","STATE":"MS","ZIP":"39209","ZIP4":"NOT AVAILABLE","TELEPHONE":"(601) 960-5319","TYPE":"1","STATUS":"1","POPULATION":462,"COUNTY":"HINDS","COUNTYFIPS":"28049","COUNTRY":"USA","LATITUDE":32.300538108000097,"LONGITUDE":-90.240772133999897,"NAICS_CODE":"611110","NAICS_DESC":"ELEMENTARY AND SECONDARY SCHOOLS","SOURCE":"http://nces.ed.gov/GLOBALLOCATOR/sch_info_popup.asp?Type=Public&ID=280219000381","SOURCEDATE":1260316800000,"VAL_METHOD":"IMAGERY","VAL_DATE":1369699200000,"WEBSITE":"http://nces.ed.gov/GLOBALLOCATOR/sch_info_popup.asp?Type=Public&ID=280219000381","LEVEL_":"1","ENROLLMENT":440,"ST_GRADE":"PK","END_GRADE":"05","DISTRICTID":"2802190","FT_TEACHER":22,"SHELTER_ID":"NOT AVAILABLE"}},{"type":"Feature","id":53,"geometry":{"type":"Point","coordinates":[-90.202535519563668,32.30448377031901]},"properties":{"OBJECTID":53,"NCESID":"280219000406","NAME":"POINDEXTER ELEMENTARY SCHOOL","ADDRESS":"1017 ROBINSON STREET","CITY":"JACKSON","STATE":"MS","ZIP":"39203","ZIP4":"NOT AVAILABLE","TELEPHONE":"(601) 960-5304","TYPE":"1","STATUS":"1","POPULATION":172,"COUNTY":"HINDS","COUNTYFIPS":"28049","COUNTRY":"USA","LATITUDE":32.304483769999997,"LONGITUDE":-90.202535519999998,"NAICS_CODE":"611110","NAICS_DESC":"ELEMENTARY AND SECONDARY SCHOOLS","SOURCE":"http://nces.ed.gov/GLOBALLOCATOR/sch_info_popup.asp?Type=Public&ID=280219000406","SOURCEDATE":1260403200000,"VAL_METHOD":"IMAGERY/OTHER","VAL_DATE":1294099200000,"WEBSITE":"http://nces.ed.gov/GLOBALLOCATOR/sch_info_popup.asp?Type=Public&ID=280219000406","LEVEL_":"1","ENROLLMENT":160,"ST_GRADE":"PK","END_GRADE":"05","DISTRICTID":"2802190","FT_TEACHER":12,"SHELTER_ID":"10807735"}},{"type":"Feature","id":54,"geometry":{"type":"Point","coordinates":[-90.266722583743373,32.301202006178819]},"properties":{"OBJECTID":54,"NCESID":"280219000417","NAME":"VAN WINKLE ELEMENTARY SCHOOL","ADDRESS":"1655 WHITING ROAD","CITY":"JACKSON","STATE":"MS","ZIP":"39209","ZIP4":"NOT AVAILABLE","TELEPHONE":"(601) 923-2547","TYPE":"1","STATUS":"1","POPULATION":472,"COUNTY":"HINDS","COUNTYFIPS":"28049","COUNTRY":"USA","LATITUDE":32.301202005999997,"LONGITUDE":-90.266722583999993,"NAICS_CODE":"611110","NAICS_DESC":"ELEMENTARY AND SECONDARY SCHOOLS","SOURCE":"http://nces.ed.gov/GLOBALLOCATOR/sch_info_popup.asp?Type=Public&ID=280219000417","SOURCEDATE":1260403200000,"VAL_METHOD":"IMAGERY/OTHER","VAL_DATE":1273104000000,"WEBSITE":"http://nces.ed.gov/GLOBALLOCATOR/sch_info_popup.asp?Type=Public&ID=280219000417","LEVEL_":"1","ENROLLMENT":450,"ST_GRADE":"PK","END_GRADE":"05","DISTRICTID":"2802190","FT_TEACHER":22,"SHELTER_ID":"NOT AVAILABLE"}},{"type":"Feature","id":55,"geometry":{"type":"Point","coordinates":[-90.223148084206656,32.352351155305165]},"properties":{"OBJECTID":55,"NCESID":"280219000382","NAME":"DAWSON ELEMENTARY SCHOOL","ADDRESS":"4215 SUNSET DRIVE","CITY":"JACKSON","STATE":"MS","ZIP":"39213","ZIP4":"NOT AVAILABLE","TELEPHONE":"(601) 987-3513","TYPE":"1","STATUS":"1","POPULATION":438,"COUNTY":"HINDS","COUNTYFIPS":"28049","COUNTRY":"USA","LATITUDE":32.3523511550001,"LONGITUDE":-90.223148083999902,"NAICS_CODE":"611110","NAICS_DESC":"ELEMENTARY AND SECONDARY SCHOOLS","SOURCE":"http://nces.ed.gov/GLOBALLOCATOR/sch_info_popup.asp?Type=Public&ID=280219000382","SOURCEDATE":1260316800000,"VAL_METHOD":"IMAGERY","VAL_DATE":1369699200000,"WEBSITE":"http://nces.ed.gov/GLOBALLOCATOR/sch_info_popup.asp?Type=Public&ID=280219000382","LEVEL_":"1","ENROLLMENT":418,"ST_GRADE":"PK","END_GRADE":"05","DISTRICTID":"2802190","FT_TEACHER":20,"SHELTER_ID":"NOT AVAILABLE"}},{"type":"Feature","id":56,"geometry":{"type":"Point","coordinates":[-90.202636227893535,32.317567724129169]},"properties":{"OBJECTID":56,"NCESID":"280219000396","NAME":"LANIER HIGH SCHOOL","ADDRESS":"833 W MAPLE STREET","CITY":"JACKSON","STATE":"MS","ZIP":"39203","ZIP4":"NOT AVAILABLE","TELEPHONE":"(601) 960-5369","TYPE":"1","STATUS":"1","POPULATION":873,"COUNTY":"HINDS","COUNTYFIPS":"28049","COUNTRY":"USA","LATITUDE":32.317567724000099,"LONGITUDE":-90.202636228000003,"NAICS_CODE":"611110","NAICS_DESC":"ELEMENTARY AND SECONDARY SCHOOLS","SOURCE":"http://nces.ed.gov/GLOBALLOCATOR/sch_info_popup.asp?Type=Public&ID=280219000396","SOURCEDATE":1264723200000,"VAL_METHOD":"IMAGERY/OTHER","VAL_DATE":1273104000000,"WEBSITE":"http://nces.ed.gov/GLOBALLOCATOR/sch_info_popup.asp?Type=Public&ID=280219000396","LEVEL_":"3","ENROLLMENT":814,"ST_GRADE":"09","END_GRADE":"12","DISTRICTID":"2802190","FT_TEACHER":59,"SHELTER_ID":"NOT AVAILABLE"}},{"type":"Feature","id":57,"geometry":{"type":"Point","coordinates":[-90.205964710600028,32.30005405037366]},"properties":{"OBJECTID":57,"NCESID":"280219000372","NAME":"BLACKBURN MIDDLE SCHOOL","ADDRESS":"1311 W PEARL STREET","CITY":"JACKSON","STATE":"MS","ZIP":"39203","ZIP4":"NOT AVAILABLE","TELEPHONE":"(601) 960-5329","TYPE":"1","STATUS":"1","POPULATION":540,"COUNTY":"HINDS","COUNTYFIPS":"28049","COUNTRY":"USA","LATITUDE":32.30005405,"LONGITUDE":-90.205964710999993,"NAICS_CODE":"611110","NAICS_DESC":"ELEMENTARY AND SECONDARY SCHOOLS","SOURCE":"http://nces.ed.gov/GLOBALLOCATOR/sch_info_popup.asp?Type=Public&ID=280219000372","SOURCEDATE":1264723200000,"VAL_METHOD":"IMAGERY/OTHER","VAL_DATE":1273104000000,"WEBSITE":"http://nces.ed.gov/GLOBALLOCATOR/sch_info_popup.asp?Type=Public&ID=280219000372","LEVEL_":"2","ENROLLMENT":507,"ST_GRADE":"06","END_GRADE":"08","DISTRICTID":"2802190","FT_TEACHER":33,"SHELTER_ID":"NOT AVAILABLE"}},{"type":"Feature","id":58,"geometry":{"type":"Point","coordinates":[-90.279184845204625,32.336984940090765]},"properties":{"OBJECTID":58,"NCESID":"280219000392","NAME":"JOHN HOPKINS ELEMENTARY SCHOOL","ADDRESS":"170 JOHN HOPKINS ROAD","CITY":"JACKSON","STATE":"MS","ZIP":"39209","ZIP4":"NOT AVAILABLE","TELEPHONE":"(601) 923-2540","TYPE":"1","STATUS":"1","POPULATION":460,"COUNTY":"HINDS","COUNTYFIPS":"28049","COUNTRY":"USA","LATITUDE":32.336984940000001,"LONGITUDE":-90.279184845000003,"NAICS_CODE":"611110","NAICS_DESC":"ELEMENTARY AND SECONDARY SCHOOLS","SOURCE":"http://nces.ed.gov/GLOBALLOCATOR/sch_info_popup.asp?Type=Public&ID=280219000392","SOURCEDATE":1260403200000,"VAL_METHOD":"IMAGERY/OTHER","VAL_DATE":1294099200000,"WEBSITE":"http://nces.ed.gov/GLOBALLOCATOR/sch_info_popup.asp?Type=Public&ID=280219000392","LEVEL_":"1","ENROLLMENT":436,"ST_GRADE":"PK","END_GRADE":"05","DISTRICTID":"2802190","FT_TEACHER":24,"SHELTER_ID":"10807715"}},{"type":"Feature","id":59,"geometry":{"type":"Point","coordinates":[-90.223100979248102,32.31409688701379]},"properties":{"OBJECTID":59,"NCESID":"280219000420","NAME":"PECAN PARK ELEMENTARY SCHOOL","ADDRESS":"415 CLAIBORNE AVENUE","CITY":"JACKSON","STATE":"MS","ZIP":"39209","ZIP4":"3199","TELEPHONE":"(601) 960-5444","TYPE":"1","STATUS":"1","POPULATION":453,"COUNTY":"HINDS","COUNTYFIPS":"28049","COUNTRY":"USA","LATITUDE":32.314096887000098,"LONGITUDE":-90.223100978999994,"NAICS_CODE":"611110","NAICS_DESC":"ELEMENTARY AND SECONDARY SCHOOLS","SOURCE":"http://nces.ed.gov/GLOBALLOCATOR/sch_info_popup.asp?Type=Public&ID=280219000420","SOURCEDATE":1260403200000,"VAL_METHOD":"IMAGERY/OTHER","VAL_DATE":1294099200000,"WEBSITE":"http://nces.ed.gov/GLOBALLOCATOR/sch_info_popup.asp?Type=Public&ID=280219000420","LEVEL_":"1","ENROLLMENT":429,"ST_GRADE":"PK","END_GRADE":"05","DISTRICTID":"2802190","FT_TEACHER":24,"SHELTER_ID":"10807734"}},{"type":"Feature","id":60,"geometry":{"type":"Point","coordinates":[-90.174800143862626,32.336213823806595]},"properties":{"OBJECTID":60,"NCESID":"280219000542","NAME":"CAREER ACADEMIC PLACEMENT PROGRAM","ADDRESS":"622 DULING AVENUE","CITY":"JACKSON","STATE":"MS","ZIP":"39216","ZIP4":"NOT AVAILABLE","TELEPHONE":"(601) 987-3695","TYPE":"4","STATUS":"1","POPULATION":0,"COUNTY":"HINDS","COUNTYFIPS":"28049","COUNTRY":"USA","LATITUDE":32.336213823999998,"LONGITUDE":-90.174800144000002,"NAICS_CODE":"611110","NAICS_DESC":"ELEMENTARY AND SECONDARY SCHOOLS","SOURCE":"http://nces.ed.gov/GLOBALLOCATOR/sch_info_popup.asp?Type=Public&ID=280219000542","SOURCEDATE":1264723200000,"VAL_METHOD":"IMAGERY/OTHER","VAL_DATE":1273104000000,"WEBSITE":"http://nces.ed.gov/GLOBALLOCATOR/sch_info_popup.asp?Type=Public&ID=280219000542","LEVEL_":"4","ENROLLMENT":0,"ST_GRADE":"01","END_GRADE":"12","DISTRICTID":"2802190","FT_TEACHER":0,"SHELTER_ID":"NOT AVAILABLE"}},{"type":"Feature","id":61,"geometry":{"type":"Point","coordinates":[-90.169050019644146,32.325497786731212]},"properties":{"OBJECTID":61,"NCESID":"280219000403","NAME":"MURRAH HIGH SCHOOL","ADDRESS":"1400 MURRAH DRIVE","CITY":"JACKSON","STATE":"MS","ZIP":"39202","ZIP4":"NOT AVAILABLE","TELEPHONE":"(601) 960-5380","TYPE":"1","STATUS":"1","POPULATION":1657,"COUNTY":"HINDS","COUNTYFIPS":"28049","COUNTRY":"USA","LATITUDE":32.325497787000103,"LONGITUDE":-90.16905002,"NAICS_CODE":"611110","NAICS_DESC":"ELEMENTARY AND SECONDARY SCHOOLS","SOURCE":"http://nces.ed.gov/GLOBALLOCATOR/sch_info_popup.asp?Type=Public&ID=280219000403","SOURCEDATE":1264723200000,"VAL_METHOD":"IMAGERY/OTHER","VAL_DATE":1273104000000,"WEBSITE":"http://nces.ed.gov/GLOBALLOCATOR/sch_info_popup.asp?Type=Public&ID=280219000403","LEVEL_":"3","ENROLLMENT":1567,"ST_GRADE":"09","END_GRADE":"12","DISTRICTID":"2802190","FT_TEACHER":90,"SHELTER_ID":"NOT AVAILABLE"}},{"type":"Feature","id":62,"geometry":{"type":"Point","coordinates":[-90.204768133980309,32.340456846664161]},"properties":{"OBJECTID":62,"NCESID":"280219000375","NAME":"BRINKLEY MIDDLE SCHOOL","ADDRESS":"3535 ALBERMARLE ROAD","CITY":"JACKSON","STATE":"MS","ZIP":"39213","ZIP4":"NOT AVAILABLE","TELEPHONE":"(601) 987-3573","TYPE":"1","STATUS":"1","POPULATION":432,"COUNTY":"HINDS","COUNTYFIPS":"28049","COUNTRY":"USA","LATITUDE":32.340456846999999,"LONGITUDE":-90.204768133999906,"NAICS_CODE":"611110","NAICS_DESC":"ELEMENTARY AND SECONDARY SCHOOLS","SOURCE":"http://nces.ed.gov/GLOBALLOCATOR/sch_info_popup.asp?Type=Public&ID=280219000375","SOURCEDATE":1264723200000,"VAL_METHOD":"IMAGERY/OTHER","VAL_DATE":1273104000000,"WEBSITE":"http://nces.ed.gov/GLOBALLOCATOR/sch_info_popup.asp?Type=Public&ID=280219000375","LEVEL_":"2","ENROLLMENT":407,"ST_GRADE":"06","END_GRADE":"08","DISTRICTID":"2802190","FT_TEACHER":25,"SHELTER_ID":"NOT AVAILABLE"}},{"type":"Feature","id":63,"geometry":{"type":"Point","coordinates":[-90.192415183116097,32.324690029296669]},"properties":{"OBJECTID":63,"NCESID":"280219000386","NAME":"GALLOWAY ELEMENTARY SCHOOL","ADDRESS":"186 IDLEWILD STREET","CITY":"JACKSON","STATE":"MS","ZIP":"39203","ZIP4":"NOT AVAILABLE","TELEPHONE":"(601) 960-5313","TYPE":"1","STATUS":"1","POPULATION":343,"COUNTY":"HINDS","COUNTYFIPS":"28049","COUNTRY":"USA","LATITUDE":32.324690029000102,"LONGITUDE":-90.192415182999994,"NAICS_CODE":"611110","NAICS_DESC":"ELEMENTARY AND SECONDARY SCHOOLS","SOURCE":"http://nces.ed.gov/GLOBALLOCATOR/sch_info_popup.asp?Type=Public&ID=280219000386","SOURCEDATE":1260316800000,"VAL_METHOD":"IMAGERY","VAL_DATE":1369699200000,"WEBSITE":"http://nces.ed.gov/GLOBALLOCATOR/sch_info_popup.asp?Type=Public&ID=280219000386","LEVEL_":"1","ENROLLMENT":324,"ST_GRADE":"PK","END_GRADE":"05","DISTRICTID":"2802190","FT_TEACHER":19,"SHELTER_ID":"10807711"}},{"type":"Feature","id":64,"geometry":{"type":"Point","coordinates":[-90.193626539717158,32.356857912190222]},"properties":{"OBJECTID":64,"NCESID":"280219000419","NAME":"WATKINS ELEMENTARY SCHOOL","ADDRESS":"3915 WATKINS DRIVE","CITY":"JACKSON","STATE":"MS","ZIP":"39206","ZIP4":"NOT AVAILABLE","TELEPHONE":"(601) 987-3594","TYPE":"1","STATUS":"1","POPULATION":434,"COUNTY":"HINDS","COUNTYFIPS":"28049","COUNTRY":"USA","LATITUDE":32.356857912000102,"LONGITUDE":-90.193626539999997,"NAICS_CODE":"611110","NAICS_DESC":"ELEMENTARY AND SECONDARY SCHOOLS","SOURCE":"http://nces.ed.gov/GLOBALLOCATOR/sch_info_popup.asp?Type=Public&ID=280219000419","SOURCEDATE":1260403200000,"VAL_METHOD":"IMAGERY/OTHER","VAL_DATE":1273104000000,"WEBSITE":"http://nces.ed.gov/GLOBALLOCATOR/sch_info_popup.asp?Type=Public&ID=280219000419","LEVEL_":"1","ENROLLMENT":413,"ST_GRADE":"PK","END_GRADE":"05","DISTRICTID":"2802190","FT_TEACHER":21,"SHELTER_ID":"NOT AVAILABLE"}},{"type":"Feature","id":65,"geometry":{"type":"Point","coordinates":[-90.228628084120885,32.311045495739748]},"properties":{"OBJECTID":65,"NCESID":"280219000389","NAME":"HARDY MIDDLE SCHOOL","ADDRESS":"545 ELLIS AVENUE","CITY":"JACKSON","STATE":"MS","ZIP":"39209","ZIP4":"NOT AVAILABLE","TELEPHONE":"(601) 960-5362","TYPE":"1","STATUS":"1","POPULATION":564,"COUNTY":"HINDS","COUNTYFIPS":"28049","COUNTRY":"USA","LATITUDE":32.311045496000098,"LONGITUDE":-90.228628083999993,"NAICS_CODE":"611110","NAICS_DESC":"ELEMENTARY AND SECONDARY SCHOOLS","SOURCE":"http://nces.ed.gov/GLOBALLOCATOR/sch_info_popup.asp?Type=Public&ID=280219000389","SOURCEDATE":1260403200000,"VAL_METHOD":"IMAGERY/OTHER","VAL_DATE":1273104000000,"WEBSITE":"http://nces.ed.gov/GLOBALLOCATOR/sch_info_popup.asp?Type=Public&ID=280219000389","LEVEL_":"2","ENROLLMENT":530,"ST_GRADE":"06","END_GRADE":"08","DISTRICTID":"2802190","FT_TEACHER":34,"SHELTER_ID":"NOT AVAILABLE"}}]}